{
"type": "FeatureCollection",
"name": "grocerystores",
"crs": { "type": "name", "properties": { "name": "urn:ogc:def:crs:OGC:1.3:CRS84" } },
"features": [
{ "type": "Feature", "properties": { "X": -122.2270043, "Y": 47.27283613, "OBJECTID": 2233, "FEATURE_ID": 350187, "ESITE": 0, "CODE": 350, "NAME": "Albertson'S #483", "ADDRESS": "4010 A ST SE", "ZIPCODE": 98002, "CITY": "Auburn", "SEAT_CAP": "Grocery" }, "geometry": { "type": "Point", "coordinates": [ -122.2270043, 47.27283613 ] } },
{ "type": "Feature", "properties": { "X": -122.2272535, "Y": 47.30740005, "OBJECTID": 1821, "FEATURE_ID": 352118, "ESITE": 0, "CODE": 350, "NAME": "Dollar Latino", "ADDRESS": "202 E MAIN ST", "ZIPCODE": 98002, "CITY": "Auburn", "SEAT_CAP": "Grocery" }, "geometry": { "type": "Point", "coordinates": [ -122.2272535, 47.30740005 ] } },
{ "type": "Feature", "properties": { "X": -122.2263125, "Y": 47.3155625, "OBJECTID": null, "FEATURE_ID": null, "ESITE": null, "CODE": null, "NAME": "Fred Meyer", "ADDRESS": "801 Auburn Way N", "ZIPCODE": null, "CITY": "Auburn", "SEAT_CAP": "Grocery store" }, "geometry": { "type": "Point", "coordinates": [ -122.2263125, 47.3155625 ] } },
{ "type": "Feature", "properties": { "X": -122.2241875, "Y": 47.2999375, "OBJECTID": null, "FEATURE_ID": null, "ESITE": null, "CODE": null, "NAME": "La Favorita Mexican Store", "ADDRESS": "813 Auburn Way S", "ZIPCODE": null, "CITY": "Auburn", "SEAT_CAP": "Grocery store" }, "geometry": { "type": "Point", "coordinates": [ -122.2241875, 47.2999375 ] } },
{ "type": "Feature", "properties": { "X": -122.2158125, "Y": 47.2956875, "OBJECTID": null, "FEATURE_ID": null, "ESITE": null, "CODE": null, "NAME": "Mi Tiendita Latina 3", "ADDRESS": "1403 Auburn Way S", "ZIPCODE": null, "CITY": "Auburn", "SEAT_CAP": "Grocery store" }, "geometry": { "type": "Point", "coordinates": [ -122.2158125, 47.2956875 ] } },
{ "type": "Feature", "properties": { "X": -122.2269375, "Y": 47.3063125, "OBJECTID": null, "FEATURE_ID": null, "ESITE": null, "CODE": null, "NAME": "Safeway", "ADDRESS": "101 Auburn Way S", "ZIPCODE": null, "CITY": "Auburn", "SEAT_CAP": "Grocery store" }, "geometry": { "type": "Point", "coordinates": [ -122.2269375, 47.3063125 ] } },
{ "type": "Feature", "properties": { "X": -122.1820625, "Y": 47.6158125, "OBJECTID": null, "FEATURE_ID": null, "ESITE": null, "CODE": null, "NAME": "Uwajimaya Bellevue", "ADDRESS": "699 120th Ave NE", "ZIPCODE": null, "CITY": "Bellevue", "SEAT_CAP": "Asian grocery store" }, "geometry": { "type": "Point", "coordinates": [ -122.1820625, 47.6158125 ] } },
{ "type": "Feature", "properties": { "X": -122.1725625, "Y": 47.5728125, "OBJECTID": null, "FEATURE_ID": null, "ESITE": null, "CODE": null, "NAME": "Walmart", "ADDRESS": "12620 SE 41st Pl", "ZIPCODE": null, "CITY": "Bellevue", "SEAT_CAP": "Discount store" }, "geometry": { "type": "Point", "coordinates": [ -122.1725625, 47.5728125 ] } },
{ "type": "Feature", "properties": { "X": -122.1463966, "Y": 47.627122, "OBJECTID": 44, "FEATURE_ID": 350399, "ESITE": 0, "CODE": 350, "NAME": "Asian Food Center-Grocery", "ADDRESS": "14509 NE 20TH ST", "ZIPCODE": 98007, "CITY": "Bellevue", "SEAT_CAP": "Grocery" }, "geometry": { "type": "Point", "coordinates": [ -122.1463966, 47.627122 ] } },
{ "type": "Feature", "properties": { "X": -122.1778629, "Y": 47.55180935, "OBJECTID": 79, "FEATURE_ID": 350851, "ESITE": 0, "CODE": 350, "NAME": "Bill Pace Fruit & Produce", "ADDRESS": "5620 119TH AVE SE", "ZIPCODE": 98006, "CITY": "Bellevue", "SEAT_CAP": "Grocery" }, "geometry": { "type": "Point", "coordinates": [ -122.1778629, 47.55180935 ] } },
{ "type": "Feature", "properties": { "X": -122.131432, "Y": 47.616394, "OBJECTID": 1629, "FEATURE_ID": 351865, "ESITE": 0, "CODE": 350, "NAME": "Cr Grocery", "ADDRESS": "15625 NE 8TH ST", "ZIPCODE": 98008, "CITY": "Bellevue", "SEAT_CAP": "Grocery" }, "geometry": { "type": "Point", "coordinates": [ -122.131432, 47.616394 ] } },
{ "type": "Feature", "properties": { "X": -122.1273125, "Y": 47.6178125, "OBJECTID": null, "FEATURE_ID": null, "ESITE": null, "CODE": null, "NAME": "European Grocery", "ADDRESS": "900 160th Ave NE", "ZIPCODE": null, "CITY": "Bellevue", "SEAT_CAP": "Grocery store" }, "geometry": { "type": "Point", "coordinates": [ -122.1273125, 47.6178125 ] } },
{ "type": "Feature", "properties": { "X": -122.1440625, "Y": 47.6289375, "OBJECTID": null, "FEATURE_ID": null, "ESITE": null, "CODE": null, "NAME": "Fred Meyer", "ADDRESS": "2041 148th Ave NE", "ZIPCODE": null, "CITY": "Bellevue", "SEAT_CAP": "Grocery store" }, "geometry": { "type": "Point", "coordinates": [ -122.1440625, 47.6289375 ] } },
{ "type": "Feature", "properties": { "X": -122.1110625, "Y": 47.5851875, "OBJECTID": null, "FEATURE_ID": null, "ESITE": null, "CODE": null, "NAME": "Full Line Of Groceries", "ADDRESS": "2810 W Lake Sammamish Pkwy SE", "ZIPCODE": null, "CITY": "Bellevue", "SEAT_CAP": "Grocery store" }, "geometry": { "type": "Point", "coordinates": [ -122.1110625, 47.5851875 ] } },
{ "type": "Feature", "properties": { "X": -122.1518125, "Y": 47.6281875, "OBJECTID": null, "FEATURE_ID": null, "ESITE": null, "CODE": null, "NAME": "Oskoo Persian & Mediterranean Market", "ADDRESS": "14100 NE 20th St", "ZIPCODE": null, "CITY": "Bellevue", "SEAT_CAP": "Grocery store" }, "geometry": { "type": "Point", "coordinates": [ -122.1518125, 47.6281875 ] } },
{ "type": "Feature", "properties": { "X": -122.1851875, "Y": 47.6126875, "OBJECTID": null, "FEATURE_ID": null, "ESITE": null, "CODE": null, "NAME": "PCC Community Markets - Bellevue", "ADDRESS": "11615 NE 4th St", "ZIPCODE": null, "CITY": "Bellevue", "SEAT_CAP": "Grocery store" }, "geometry": { "type": "Point", "coordinates": [ -122.1851875, 47.6126875 ] } },
{ "type": "Feature", "properties": { "X": -122.1488125, "Y": 47.5966875, "OBJECTID": null, "FEATURE_ID": null, "ESITE": null, "CODE": null, "NAME": "QFC", "ADDRESS": "1510 145th Pl SE", "ZIPCODE": null, "CITY": "Bellevue", "SEAT_CAP": "Grocery store" }, "geometry": { "type": "Point", "coordinates": [ -122.1488125, 47.5966875 ] } },
{ "type": "Feature", "properties": { "X": -122.2006875, "Y": 47.6348125, "OBJECTID": null, "FEATURE_ID": null, "ESITE": null, "CODE": null, "NAME": "QFC", "ADDRESS": "2636 Bellevue Way NE", "ZIPCODE": null, "CITY": "Bellevue", "SEAT_CAP": "Grocery store" }, "geometry": { "type": "Point", "coordinates": [ -122.2006875, 47.6348125 ] } },
{ "type": "Feature", "properties": { "X": -122.1675625, "Y": 47.5784375, "OBJECTID": null, "FEATURE_ID": null, "ESITE": null, "CODE": null, "NAME": "QFC", "ADDRESS": "3550 Factoria Blvd SE", "ZIPCODE": null, "CITY": "Bellevue", "SEAT_CAP": "Grocery store" }, "geometry": { "type": "Point", "coordinates": [ -122.1675625, 47.5784375 ] } },
{ "type": "Feature", "properties": { "X": -122.1380625, "Y": 47.5765625, "OBJECTID": null, "FEATURE_ID": null, "ESITE": null, "CODE": null, "NAME": "Safeway", "ADDRESS": "15100 SE 38th St", "ZIPCODE": null, "CITY": "Bellevue", "SEAT_CAP": "Grocery store" }, "geometry": { "type": "Point", "coordinates": [ -122.1380625, 47.5765625 ] } },
{ "type": "Feature", "properties": { "X": -122.1548125, "Y": 47.6258125, "OBJECTID": null, "FEATURE_ID": null, "ESITE": null, "CODE": null, "NAME": "Safeway", "ADDRESS": "1645 140th Ave NE", "ZIPCODE": null, "CITY": "Bellevue", "SEAT_CAP": "Grocery store" }, "geometry": { "type": "Point", "coordinates": [ -122.1548125, 47.6258125 ] } },
{ "type": "Feature", "properties": { "X": -122.2008125, "Y": 47.6130625, "OBJECTID": null, "FEATURE_ID": null, "ESITE": null, "CODE": null, "NAME": "Safeway", "ADDRESS": "300 Bellevue Way NE", "ZIPCODE": null, "CITY": "Bellevue", "SEAT_CAP": "Grocery store" }, "geometry": { "type": "Point", "coordinates": [ -122.2008125, 47.6130625 ] } },
{ "type": "Feature", "properties": { "X": -122.1853125, "Y": 47.6138125, "OBJECTID": null, "FEATURE_ID": null, "ESITE": null, "CODE": null, "NAME": "Trader Joe's", "ADDRESS": "416 116th Ave NE", "ZIPCODE": null, "CITY": "Bellevue", "SEAT_CAP": "Grocery store" }, "geometry": { "type": "Point", "coordinates": [ -122.1853125, 47.6138125 ] } },
{ "type": "Feature", "properties": { "X": -122.1449375, "Y": 47.6308125, "OBJECTID": null, "FEATURE_ID": null, "ESITE": null, "CODE": null, "NAME": "Apna Bazar", "ADDRESS": "2245 148th Ave NE", "ZIPCODE": null, "CITY": "Bellevue", "SEAT_CAP": "Indian grocery store" }, "geometry": { "type": "Point", "coordinates": [ -122.1449375, 47.6308125 ] } },
{ "type": "Feature", "properties": { "X": -122.1449375, "Y": 47.6274375, "OBJECTID": null, "FEATURE_ID": null, "ESITE": null, "CODE": null, "NAME": "India Supermarket", "ADDRESS": "14625 NE 20th St", "ZIPCODE": null, "CITY": "Bellevue", "SEAT_CAP": "Indian grocery store" }, "geometry": { "type": "Point", "coordinates": [ -122.1449375, 47.6274375 ] } },
{ "type": "Feature", "properties": { "X": -122.1958125, "Y": 47.6110625, "OBJECTID": null, "FEATURE_ID": null, "ESITE": null, "CODE": null, "NAME": "H Mart Bellevue", "ADDRESS": "100 108th Ave NE", "ZIPCODE": null, "CITY": "Bellevue", "SEAT_CAP": "Korean grocery store" }, "geometry": { "type": "Point", "coordinates": [ -122.1958125, 47.6110625 ] } },
{ "type": "Feature", "properties": { "X": -122.1686875, "Y": 47.5754375, "OBJECTID": null, "FEATURE_ID": null, "ESITE": null, "CODE": null, "NAME": "Southgate Mart", "ADDRESS": "3900 Factoria Blvd SE #E", "ZIPCODE": null, "CITY": "Bellevue", "SEAT_CAP": "Korean grocery store" }, "geometry": { "type": "Point", "coordinates": [ -122.1686875, 47.5754375 ] } },
{ "type": "Feature", "properties": { "X": -122.1394375, "Y": 47.6089375, "OBJECTID": null, "FEATURE_ID": null, "ESITE": null, "CODE": null, "NAME": "Walmart Neighborhood Market", "ADDRESS": "15063 Main St", "ZIPCODE": null, "CITY": "Bellevue", "SEAT_CAP": "Supermarket" }, "geometry": { "type": "Point", "coordinates": [ -122.1394375, 47.6089375 ] } },
{ "type": "Feature", "properties": { "X": -122.0523125, "Y": 47.3410625, "OBJECTID": null, "FEATURE_ID": null, "ESITE": null, "CODE": null, "NAME": "Lake Sawyer Grocery", "ADDRESS": "29036 216th Ave SE", "ZIPCODE": null, "CITY": "Black Diamond", "SEAT_CAP": "Grocery store" }, "geometry": { "type": "Point", "coordinates": [ -122.0523125, 47.3410625 ] } },
{ "type": "Feature", "properties": { "X": -122.3287986, "Y": 47.44496864, "OBJECTID": 118, "FEATURE_ID": 350032, "ESITE": 0, "CODE": 350, "NAME": "Abarrotes Quinceo", "ADDRESS": "17730 AMBAUM BL S", "ZIPCODE": 98148, "CITY": "Burien", "SEAT_CAP": "Grocery" }, "geometry": { "type": "Point", "coordinates": [ -122.3287986, 47.44496864 ] } },
{ "type": "Feature", "properties": { "X": -122.3351674, "Y": 47.48908532, "OBJECTID": 785, "FEATURE_ID": 350170, "ESITE": 0, "CODE": 350, "NAME": "Alberson'S #473 Grocery", "ADDRESS": "12725 1ST AVE S", "ZIPCODE": 98146, "CITY": "Burien", "SEAT_CAP": "Grocery" }, "geometry": { "type": "Point", "coordinates": [ -122.3351674, 47.48908532 ] } },
{ "type": "Feature", "properties": { "X": -122.3319109, "Y": 47.46096819, "OBJECTID": 794, "FEATURE_ID": 350179, "ESITE": 0, "CODE": 350, "NAME": "Albertson'S #411", "ADDRESS": "15840 1ST AVE S", "ZIPCODE": 98148, "CITY": "Burien", "SEAT_CAP": "Grocery" }, "geometry": { "type": "Point", "coordinates": [ -122.3319109, 47.46096819 ] } },
{ "type": "Feature", "properties": { "X": -122.3354241, "Y": 47.46566165, "OBJECTID": 824, "FEATURE_ID": 350212, "ESITE": 0, "CODE": 350, "NAME": "Alfurat Market", "ADDRESS": "137 SW 153RD ST", "ZIPCODE": 98166, "CITY": "Burien", "SEAT_CAP": "Grocery" }, "geometry": { "type": "Point", "coordinates": [ -122.3354241, 47.46566165 ] } },
{ "type": "Feature", "properties": { "X": -122.3379041, "Y": 47.46660854, "OBJECTID": 711, "FEATURE_ID": 351156, "ESITE": 0, "CODE": 350, "NAME": "Burien Market", "ADDRESS": "233 SW 152ND ST", "ZIPCODE": 98166, "CITY": "Burien", "SEAT_CAP": "Grocery" }, "geometry": { "type": "Point", "coordinates": [ -122.3379041, 47.46660854 ] } },
{ "type": "Feature", "properties": { "X": -122.337473, "Y": 47.466602, "OBJECTID": 1673, "FEATURE_ID": 351911, "ESITE": 0, "CODE": 350, "NAME": "Cuautla Grocery & Video", "ADDRESS": "223 SW 152ND ST", "ZIPCODE": 98166, "CITY": "Burien", "SEAT_CAP": "Grocery" }, "geometry": { "type": "Point", "coordinates": [ -122.337473, 47.466602 ] } },
{ "type": "Feature", "properties": { "X": -122.3156875, "Y": 47.4743125, "OBJECTID": null, "FEATURE_ID": null, "ESITE": null, "CODE": null, "NAME": "757 Grocery", "ADDRESS": "14257 Des Moines Memorial Dr", "ZIPCODE": null, "CITY": "Burien", "SEAT_CAP": "Grocery store" }, "geometry": { "type": "Point", "coordinates": [ -122.3156875, 47.4743125 ] } },
{ "type": "Feature", "properties": { "X": -122.3358125, "Y": 47.4661875, "OBJECTID": null, "FEATURE_ID": null, "ESITE": null, "CODE": null, "NAME": "Balkan Market Ltd", "ADDRESS": "144 SW 153rd St", "ZIPCODE": null, "CITY": "Burien", "SEAT_CAP": "Grocery store" }, "geometry": { "type": "Point", "coordinates": [ -122.3358125, 47.4661875 ] } },
{ "type": "Feature", "properties": { "X": -122.3485625, "Y": 47.4805625, "OBJECTID": null, "FEATURE_ID": null, "ESITE": null, "CODE": null, "NAME": "Buena Market", "ADDRESS": "13621 Ambaum Blvd SW", "ZIPCODE": null, "CITY": "Burien", "SEAT_CAP": "Grocery store" }, "geometry": { "type": "Point", "coordinates": [ -122.3485625, 47.4805625 ] } },
{ "type": "Feature", "properties": { "X": -122.3524375, "Y": 47.4683125, "OBJECTID": null, "FEATURE_ID": null, "ESITE": null, "CODE": null, "NAME": "Comida", "ADDRESS": "1259 SW 150th St", "ZIPCODE": null, "CITY": "Burien", "SEAT_CAP": "Grocery store" }, "geometry": { "type": "Point", "coordinates": [ -122.3524375, 47.4683125 ] } },
{ "type": "Feature", "properties": { "X": -122.3373125, "Y": 47.4665625, "OBJECTID": null, "FEATURE_ID": null, "ESITE": null, "CODE": null, "NAME": "Eukem Market LLC", "ADDRESS": "215 SW 152nd St", "ZIPCODE": null, "CITY": "Burien", "SEAT_CAP": "Grocery store" }, "geometry": { "type": "Point", "coordinates": [ -122.3373125, 47.4665625 ] } },
{ "type": "Feature", "properties": { "X": -122.3320625, "Y": 47.4753125, "OBJECTID": null, "FEATURE_ID": null, "ESITE": null, "CODE": null, "NAME": "Fred Meyer", "ADDRESS": "14300 1st Ave S", "ZIPCODE": null, "CITY": "Burien", "SEAT_CAP": "Grocery store" }, "geometry": { "type": "Point", "coordinates": [ -122.3320625, 47.4753125 ] } },
{ "type": "Feature", "properties": { "X": -122.3361875, "Y": 47.4700625, "OBJECTID": null, "FEATURE_ID": null, "ESITE": null, "CODE": null, "NAME": "Hong Kong Market Burien", "ADDRESS": "125 SW 148th St B", "ZIPCODE": null, "CITY": "Burien", "SEAT_CAP": "Grocery store" }, "geometry": { "type": "Point", "coordinates": [ -122.3361875, 47.4700625 ] } },
{ "type": "Feature", "properties": { "X": -122.3379375, "Y": 47.4661875, "OBJECTID": null, "FEATURE_ID": null, "ESITE": null, "CODE": null, "NAME": "Micronesian Market", "ADDRESS": "228 SW 153rd St", "ZIPCODE": null, "CITY": "Burien", "SEAT_CAP": "Grocery store" }, "geometry": { "type": "Point", "coordinates": [ -122.3379375, 47.4661875 ] } },
{ "type": "Feature", "properties": { "X": -122.3369375, "Y": 47.4718125, "OBJECTID": null, "FEATURE_ID": null, "ESITE": null, "CODE": null, "NAME": "Safeway", "ADDRESS": "138 SW 148th St", "ZIPCODE": null, "CITY": "Burien", "SEAT_CAP": "Grocery store" }, "geometry": { "type": "Point", "coordinates": [ -122.3369375, 47.4718125 ] } },
{ "type": "Feature", "properties": { "X": -122.3443125, "Y": 47.4670625, "OBJECTID": null, "FEATURE_ID": null, "ESITE": null, "CODE": null, "NAME": "Town Square Burien Market", "ADDRESS": "660 SW 152nd St", "ZIPCODE": null, "CITY": "Burien", "SEAT_CAP": "Grocery store" }, "geometry": { "type": "Point", "coordinates": [ -122.3443125, 47.4670625 ] } },
{ "type": "Feature", "properties": { "X": -122.3314375, "Y": 47.4600625, "OBJECTID": null, "FEATURE_ID": null, "ESITE": null, "CODE": null, "NAME": "Trader Joe's", "ADDRESS": "15868 1st Ave S", "ZIPCODE": null, "CITY": "Burien", "SEAT_CAP": "Grocery store" }, "geometry": { "type": "Point", "coordinates": [ -122.3314375, 47.4600625 ] } },
{ "type": "Feature", "properties": { "X": -122.3359375, "Y": 47.4673125, "OBJECTID": null, "FEATURE_ID": null, "ESITE": null, "CODE": null, "NAME": "Wayne's Fruits & Vegetables", "ADDRESS": "144 SW 152nd St", "ZIPCODE": null, "CITY": "Burien", "SEAT_CAP": "Grocery store" }, "geometry": { "type": "Point", "coordinates": [ -122.3359375, 47.4673125 ] } },
{ "type": "Feature", "properties": { "X": -121.916407, "Y": 47.647144, "OBJECTID": 1228, "FEATURE_ID": 351345, "ESITE": 0, "CODE": 350, "NAME": "Carnation Market", "ADDRESS": "31722 W EUGENE ST", "ZIPCODE": 98014, "CITY": "Carnation", "SEAT_CAP": "Grocery" }, "geometry": { "type": "Point", "coordinates": [ -121.916407, 47.647144 ] } },
{ "type": "Feature", "properties": { "X": -122.1227158, "Y": 47.35468356, "OBJECTID": 1577, "FEATURE_ID": 351809, "ESITE": 0, "CODE": 350, "NAME": "Costco #1029 - Grocery", "ADDRESS": "27520 COVINGTON WAY SE", "ZIPCODE": 98042, "CITY": "Covington", "SEAT_CAP": "Grocery" }, "geometry": { "type": "Point", "coordinates": [ -122.1227158, 47.35468356 ] } },
{ "type": "Feature", "properties": { "X": -122.1233125, "Y": 47.3723125, "OBJECTID": null, "FEATURE_ID": null, "ESITE": null, "CODE": null, "NAME": "Foss' Grocery & Espresso", "ADDRESS": "16255 SE 256th St", "ZIPCODE": null, "CITY": "Covington", "SEAT_CAP": "Grocery store" }, "geometry": { "type": "Point", "coordinates": [ -122.1233125, 47.3723125 ] } },
{ "type": "Feature", "properties": { "X": -122.1186875, "Y": 47.3563125, "OBJECTID": null, "FEATURE_ID": null, "ESITE": null, "CODE": null, "NAME": "Fred Meyer", "ADDRESS": "16735 SE 272nd St", "ZIPCODE": null, "CITY": "Covington", "SEAT_CAP": "Grocery store" }, "geometry": { "type": "Point", "coordinates": [ -122.1186875, 47.3563125 ] } },
{ "type": "Feature", "properties": { "X": -122.1150625, "Y": 47.3566875, "OBJECTID": null, "FEATURE_ID": null, "ESITE": null, "CODE": null, "NAME": "Safeway", "ADDRESS": "17023 SE 272nd St", "ZIPCODE": null, "CITY": "Covington", "SEAT_CAP": "Grocery store" }, "geometry": { "type": "Point", "coordinates": [ -122.1150625, 47.3566875 ] } },
{ "type": "Feature", "properties": { "X": -122.3264301, "Y": 47.40154176, "OBJECTID": 123, "FEATURE_ID": 350037, "ESITE": 0, "CODE": 350, "NAME": "Abc Grocery", "ADDRESS": "22309 7TH AVE S", "ZIPCODE": 98198, "CITY": "Des Moines", "SEAT_CAP": "Grocery" }, "geometry": { "type": "Point", "coordinates": [ -122.3264301, 47.40154176 ] } },
{ "type": "Feature", "properties": { "X": -122.3253599, "Y": 47.40801875, "OBJECTID": 1905, "FEATURE_ID": 352217, "ESITE": 0, "CODE": 350, "NAME": "E Z Mart", "ADDRESS": "21620 MARINE VIEW DR S", "ZIPCODE": 98198, "CITY": "Des Moines", "SEAT_CAP": "Grocery" }, "geometry": { "type": "Point", "coordinates": [ -122.3253599, 47.40801875 ] } },
{ "type": "Feature", "properties": { "X": -122.2994375, "Y": 47.4099375, "OBJECTID": null, "FEATURE_ID": null, "ESITE": null, "CODE": null, "NAME": "Safeway", "ADDRESS": "21401 Pacific Hwy S", "ZIPCODE": null, "CITY": "Des Moines", "SEAT_CAP": "Grocery store" }, "geometry": { "type": "Point", "coordinates": [ -122.2994375, 47.4099375 ] } },
{ "type": "Feature", "properties": { "X": -122.3106875, "Y": 47.3593125, "OBJECTID": null, "FEATURE_ID": null, "ESITE": null, "CODE": null, "NAME": "Safeway", "ADDRESS": "27035 Pacific Hwy S", "ZIPCODE": null, "CITY": "Des Moines", "SEAT_CAP": "Grocery store" }, "geometry": { "type": "Point", "coordinates": [ -122.3106875, 47.3593125 ] } },
{ "type": "Feature", "properties": { "X": -121.986345, "Y": 47.73813127, "OBJECTID": 1899, "FEATURE_ID": 352211, "ESITE": 0, "CODE": 350, "NAME": "Duvall Family Grocer", "ADDRESS": "15215 BROWN AVE NE", "ZIPCODE": 98019, "CITY": "Duvall", "SEAT_CAP": "Grocery" }, "geometry": { "type": "Point", "coordinates": [ -121.986345, 47.73813127 ] } },
{ "type": "Feature", "properties": { "X": -121.985431, "Y": 47.74289774, "OBJECTID": 1902, "FEATURE_ID": 352214, "ESITE": 0, "CODE": 350, "NAME": "Duvall Market", "ADDRESS": "15820 MAIN ST NE", "ZIPCODE": 98019, "CITY": "Duvall", "SEAT_CAP": "Grocery" }, "geometry": { "type": "Point", "coordinates": [ -121.985431, 47.74289774 ] } },
{ "type": "Feature", "properties": { "X": -122.0376851, "Y": 47.21036242, "OBJECTID": 1604, "FEATURE_ID": 351837, "ESITE": 0, "CODE": 350, "NAME": "Country Corner Grocery", "ADDRESS": "43529 228TH AVE SE", "ZIPCODE": 98022, "CITY": "Enumclaw", "SEAT_CAP": "Grocery" }, "geometry": { "type": "Point", "coordinates": [ -122.0376851, 47.21036242 ] } },
{ "type": "Feature", "properties": { "X": -121.9905625, "Y": 47.1986875, "OBJECTID": null, "FEATURE_ID": null, "ESITE": null, "CODE": null, "NAME": "Grocery Outlet", "ADDRESS": "960 Roosevelt Ave", "ZIPCODE": null, "CITY": "Enumclaw", "SEAT_CAP": "Grocery store" }, "geometry": { "type": "Point", "coordinates": [ -121.9905625, 47.1986875 ] } },
{ "type": "Feature", "properties": { "X": -121.9796875, "Y": 47.1981875, "OBJECTID": null, "FEATURE_ID": null, "ESITE": null, "CODE": null, "NAME": "Safeway", "ADDRESS": "152 Roosevelt Ave E", "ZIPCODE": null, "CITY": "Enumclaw", "SEAT_CAP": "Grocery store" }, "geometry": { "type": "Point", "coordinates": [ -121.9796875, 47.1981875 ] } },
{ "type": "Feature", "properties": { "X": -122.3093125, "Y": 47.3216875, "OBJECTID": null, "FEATURE_ID": null, "ESITE": null, "CODE": null, "NAME": "Walmart", "ADDRESS": "1900 S 314th St", "ZIPCODE": null, "CITY": "Federal Way", "SEAT_CAP": "Discount store" }, "geometry": { "type": "Point", "coordinates": [ -122.3093125, 47.3216875 ] } },
{ "type": "Feature", "properties": { "X": -122.315777, "Y": 47.32402819, "OBJECTID": 789, "FEATURE_ID": 350174, "ESITE": 0, "CODE": 350, "NAME": "Albertson's", "ADDRESS": "31009 PACIFIC HWY S", "ZIPCODE": 98003, "CITY": "Federal Way", "SEAT_CAP": "Grocery" }, "geometry": { "type": "Point", "coordinates": [ -122.315777, 47.32402819 ] } },
{ "type": "Feature", "properties": { "X": -122.312034, "Y": 47.294045, "OBJECTID": 1253, "FEATURE_ID": 351376, "ESITE": 0, "CODE": 350, "NAME": "Cash & Carry #556", "ADDRESS": "1628 S 344TH ST", "ZIPCODE": 98003, "CITY": "Federal Way", "SEAT_CAP": "Grocery" }, "geometry": { "type": "Point", "coordinates": [ -122.312034, 47.294045 ] } },
{ "type": "Feature", "properties": { "X": -122.3103873, "Y": 47.35680561, "OBJECTID": 1553, "FEATURE_ID": 351782, "ESITE": 0, "CODE": 350, "NAME": "Corner Mart", "ADDRESS": "27313 PACIFIC HWY S", "ZIPCODE": 98003, "CITY": "Federal Way", "SEAT_CAP": "Grocery" }, "geometry": { "type": "Point", "coordinates": [ -122.3103873, 47.35680561 ] } },
{ "type": "Feature", "properties": { "X": -122.3102577, "Y": 47.28724477, "OBJECTID": 1596, "FEATURE_ID": 351829, "ESITE": 0, "CODE": 350, "NAME": "Costco Wholesale Grocery #061", "ADDRESS": "35100 ENCHANTED PKWY S", "ZIPCODE": 98003, "CITY": "Federal Way", "SEAT_CAP": "Grocery" }, "geometry": { "type": "Point", "coordinates": [ -122.3102577, 47.28724477 ] } },
{ "type": "Feature", "properties": { "X": -122.3589375, "Y": 47.2979375, "OBJECTID": null, "FEATURE_ID": null, "ESITE": null, "CODE": null, "NAME": "Fred Meyer", "ADDRESS": "33702 21st Ave SW", "ZIPCODE": null, "CITY": "Federal Way", "SEAT_CAP": "Grocery store" }, "geometry": { "type": "Point", "coordinates": [ -122.3589375, 47.2979375 ] } },
{ "type": "Feature", "properties": { "X": -122.3179375, "Y": 47.3136875, "OBJECTID": null, "FEATURE_ID": null, "ESITE": null, "CODE": null, "NAME": "Safeway", "ADDRESS": "1207 S 320th St", "ZIPCODE": null, "CITY": "Federal Way", "SEAT_CAP": "Grocery store" }, "geometry": { "type": "Point", "coordinates": [ -122.3179375, 47.3136875 ] } },
{ "type": "Feature", "properties": { "X": -122.3619375, "Y": 47.2996875, "OBJECTID": null, "FEATURE_ID": null, "ESITE": null, "CODE": null, "NAME": "Safeway", "ADDRESS": "2109 SW 336th St", "ZIPCODE": null, "CITY": "Federal Way", "SEAT_CAP": "Grocery store" }, "geometry": { "type": "Point", "coordinates": [ -122.3619375, 47.2996875 ] } },
{ "type": "Feature", "properties": { "X": -122.3000625, "Y": 47.3425625, "OBJECTID": null, "FEATURE_ID": null, "ESITE": null, "CODE": null, "NAME": "Safeway", "ADDRESS": "28810 Military Rd S", "ZIPCODE": null, "CITY": "Federal Way", "SEAT_CAP": "Grocery store" }, "geometry": { "type": "Point", "coordinates": [ -122.3000625, 47.3425625 ] } },
{ "type": "Feature", "properties": { "X": -122.3153125, "Y": 47.3219375, "OBJECTID": null, "FEATURE_ID": null, "ESITE": null, "CODE": null, "NAME": "H Mart Federal Way", "ADDRESS": "31217 Pacific Hwy S", "ZIPCODE": null, "CITY": "Federal Way", "SEAT_CAP": "Korean grocery store" }, "geometry": { "type": "Point", "coordinates": [ -122.3153125, 47.3219375 ] } },
{ "type": "Feature", "properties": { "X": -122.3116875, "Y": 47.3415625, "OBJECTID": null, "FEATURE_ID": null, "ESITE": null, "CODE": null, "NAME": "Minisuper La Familiar", "ADDRESS": "29100 Pacific Hwy S", "ZIPCODE": null, "CITY": "Federal Way", "SEAT_CAP": "Mexican grocery store" }, "geometry": { "type": "Point", "coordinates": [ -122.3116875, 47.3415625 ] } },
{ "type": "Feature", "properties": { "X": -122.3361875, "Y": 47.2925625, "OBJECTID": null, "FEATURE_ID": null, "ESITE": null, "CODE": null, "NAME": "WinCo Foods", "ADDRESS": "160 SW Campus Dr", "ZIPCODE": null, "CITY": "Federal Way", "SEAT_CAP": "Supermarket" }, "geometry": { "type": "Point", "coordinates": [ -122.3361875, 47.2925625 ] } },
{ "type": "Feature", "properties": { "X": -122.0527867, "Y": 47.55138378, "OBJECTID": 1569, "FEATURE_ID": 351799, "ESITE": 0, "CODE": 350, "NAME": "Costco - Grocery", "ADDRESS": "1801 10TH AVE NW", "ZIPCODE": 98027, "CITY": "Issaquah", "SEAT_CAP": "Grocery" }, "geometry": { "type": "Point", "coordinates": [ -122.0527867, 47.55138378 ] } },
{ "type": "Feature", "properties": { "X": -122.0389375, "Y": 47.5483125, "OBJECTID": null, "FEATURE_ID": null, "ESITE": null, "CODE": null, "NAME": "Fred Meyer", "ADDRESS": "6100 E Lake Sammamish Pkwy SE", "ZIPCODE": null, "CITY": "Issaquah", "SEAT_CAP": "Grocery store" }, "geometry": { "type": "Point", "coordinates": [ -122.0389375, 47.5483125 ] } },
{ "type": "Feature", "properties": { "X": -122.0429375, "Y": 47.5410625, "OBJECTID": null, "FEATURE_ID": null, "ESITE": null, "CODE": null, "NAME": "Maurya Indian Groceries & Restaurant", "ADDRESS": "385 NW Gilman Blvd", "ZIPCODE": null, "CITY": "Issaquah", "SEAT_CAP": "Grocery store" }, "geometry": { "type": "Point", "coordinates": [ -122.0429375, 47.5410625 ] } },
{ "type": "Feature", "properties": { "X": -122.0603125, "Y": 47.5466875, "OBJECTID": null, "FEATURE_ID": null, "ESITE": null, "CODE": null, "NAME": "QFC", "ADDRESS": "1540 NW Gilman Blvd", "ZIPCODE": null, "CITY": "Issaquah", "SEAT_CAP": "Grocery store" }, "geometry": { "type": "Point", "coordinates": [ -122.0603125, 47.5466875 ] } },
{ "type": "Feature", "properties": { "X": -122.0036875, "Y": 47.5656875, "OBJECTID": null, "FEATURE_ID": null, "ESITE": null, "CODE": null, "NAME": "QFC", "ADDRESS": "4570 Klahanie Dr SE", "ZIPCODE": null, "CITY": "Issaquah", "SEAT_CAP": "Grocery store" }, "geometry": { "type": "Point", "coordinates": [ -122.0036875, 47.5656875 ] } },
{ "type": "Feature", "properties": { "X": -122.0191875, "Y": 47.5414375, "OBJECTID": null, "FEATURE_ID": null, "ESITE": null, "CODE": null, "NAME": "Safeway", "ADDRESS": "1451 Highlands Dr NE", "ZIPCODE": null, "CITY": "Issaquah", "SEAT_CAP": "Grocery store" }, "geometry": { "type": "Point", "coordinates": [ -122.0191875, 47.5414375 ] } },
{ "type": "Feature", "properties": { "X": -122.0478125, "Y": 47.5415625, "OBJECTID": null, "FEATURE_ID": null, "ESITE": null, "CODE": null, "NAME": "Safeway", "ADDRESS": "735 NW Gilman Blvd", "ZIPCODE": null, "CITY": "Issaquah", "SEAT_CAP": "Grocery store" }, "geometry": { "type": "Point", "coordinates": [ -122.0478125, 47.5415625 ] } },
{ "type": "Feature", "properties": { "X": -122.2209375, "Y": 47.4388125, "OBJECTID": null, "FEATURE_ID": null, "ESITE": null, "CODE": null, "NAME": "99 Ranch Market", "ADDRESS": "18230 E Valley Hwy", "ZIPCODE": null, "CITY": "Kent", "SEAT_CAP": "Asian grocery store" }, "geometry": { "type": "Point", "coordinates": [ -122.2209375, 47.4388125 ] } },
{ "type": "Feature", "properties": { "X": -122.2035625, "Y": 47.3659375, "OBJECTID": null, "FEATURE_ID": null, "ESITE": null, "CODE": null, "NAME": "Target", "ADDRESS": "26301 104th Ave SE", "ZIPCODE": null, "CITY": "Kent", "SEAT_CAP": "Department store" }, "geometry": { "type": "Point", "coordinates": [ -122.2035625, 47.3659375 ] } },
{ "type": "Feature", "properties": { "X": -122.20171, "Y": 47.371268, "OBJECTID": 48, "FEATURE_ID": 350403, "ESITE": 0, "CODE": 350, "NAME": "Asian Pacific Market\/Grocery", "ADDRESS": "25644 104TH AVE SE", "ZIPCODE": 98030, "CITY": "Kent", "SEAT_CAP": "Grocery" }, "geometry": { "type": "Point", "coordinates": [ -122.20171, 47.371268 ] } },
{ "type": "Feature", "properties": { "X": -122.2301911, "Y": 47.38126696, "OBJECTID": 52, "FEATURE_ID": 350408, "ESITE": 0, "CODE": 350, "NAME": "Asian Xpress \/ Hong Kong Market - Grocery", "ADDRESS": "320 E MEEKER ST", "ZIPCODE": 98030, "CITY": "Kent", "SEAT_CAP": "Grocery" }, "geometry": { "type": "Point", "coordinates": [ -122.2301911, 47.38126696 ] } },
{ "type": "Feature", "properties": { "X": -122.1965136, "Y": 47.41642931, "OBJECTID": 326, "FEATURE_ID": 350785, "ESITE": 0, "CODE": 350, "NAME": "Benson Mart", "ADDRESS": "20712 108TH AVE SE", "ZIPCODE": 98031, "CITY": "Kent", "SEAT_CAP": "Grocery" }, "geometry": { "type": "Point", "coordinates": [ -122.1965136, 47.41642931 ] } },
{ "type": "Feature", "properties": { "X": -122.2853215, "Y": 47.38031331, "OBJECTID": 495, "FEATURE_ID": 350989, "ESITE": 0, "CODE": 350, "NAME": "Bombay-Fiji Bazaar", "ADDRESS": "24700 MILITARY RD #104", "ZIPCODE": 98032, "CITY": "Kent", "SEAT_CAP": "Grocery" }, "geometry": { "type": "Point", "coordinates": [ -122.2853215, 47.38031331 ] } },
{ "type": "Feature", "properties": { "X": -122.2278696, "Y": 47.39450829, "OBJECTID": 1233, "FEATURE_ID": 351351, "ESITE": 0, "CODE": 350, "NAME": "Carpinito Brothers Produce", "ADDRESS": "1148 N CENTRAL AVE", "ZIPCODE": 98032, "CITY": "Kent", "SEAT_CAP": "Grocery" }, "geometry": { "type": "Point", "coordinates": [ -122.2278696, 47.39450829 ] } },
{ "type": "Feature", "properties": { "X": -122.2272811, "Y": 47.40890902, "OBJECTID": 1252, "FEATURE_ID": 351375, "ESITE": 0, "CODE": 350, "NAME": "Cash & Carry #555", "ADDRESS": "21504 84TH AVE S", "ZIPCODE": 98032, "CITY": "Kent", "SEAT_CAP": "Grocery" }, "geometry": { "type": "Point", "coordinates": [ -122.2272811, 47.40890902 ] } },
{ "type": "Feature", "properties": { "X": -122.2942991, "Y": 47.39156717, "OBJECTID": 2321, "FEATURE_ID": 352047, "ESITE": 0, "CODE": 350, "NAME": "Des Moines Grocery & Produce", "ADDRESS": "23422 PACIFIC HWY S", "ZIPCODE": 98032, "CITY": "Kent", "SEAT_CAP": "Grocery" }, "geometry": { "type": "Point", "coordinates": [ -122.2942991, 47.39156717 ] } },
{ "type": "Feature", "properties": { "X": -122.2054375, "Y": 47.3863125, "OBJECTID": null, "FEATURE_ID": null, "ESITE": null, "CODE": null, "NAME": "Fred Meyer", "ADDRESS": "10201 SE 240th St", "ZIPCODE": null, "CITY": "Kent", "SEAT_CAP": "Grocery store" }, "geometry": { "type": "Point", "coordinates": [ -122.2054375, 47.3863125 ] } },
{ "type": "Feature", "properties": { "X": -122.2984375, "Y": 47.3738125, "OBJECTID": null, "FEATURE_ID": null, "ESITE": null, "CODE": null, "NAME": "Fred Meyer", "ADDRESS": "25250 Pacific Hwy S", "ZIPCODE": null, "CITY": "Kent", "SEAT_CAP": "Grocery store" }, "geometry": { "type": "Point", "coordinates": [ -122.2984375, 47.3738125 ] } },
{ "type": "Feature", "properties": { "X": -122.2005625, "Y": 47.3874375, "OBJECTID": null, "FEATURE_ID": null, "ESITE": null, "CODE": null, "NAME": "Grocery Outlet", "ADDRESS": "23910 104th Ave SE", "ZIPCODE": null, "CITY": "Kent", "SEAT_CAP": "Grocery store" }, "geometry": { "type": "Point", "coordinates": [ -122.2005625, 47.3874375 ] } },
{ "type": "Feature", "properties": { "X": -122.3024375, "Y": 47.3673125, "OBJECTID": null, "FEATURE_ID": null, "ESITE": null, "CODE": null, "NAME": "Grocery Outlet", "ADDRESS": "26104 Pacific Hwy S", "ZIPCODE": null, "CITY": "Kent", "SEAT_CAP": "Grocery store" }, "geometry": { "type": "Point", "coordinates": [ -122.3024375, 47.3673125 ] } },
{ "type": "Feature", "properties": { "X": -122.1978125, "Y": 47.4165625, "OBJECTID": null, "FEATURE_ID": null, "ESITE": null, "CODE": null, "NAME": "Mana Grocery Kent", "ADDRESS": "10700 SE 208th St", "ZIPCODE": null, "CITY": "Kent", "SEAT_CAP": "Grocery store" }, "geometry": { "type": "Point", "coordinates": [ -122.1978125, 47.4165625 ] } },
{ "type": "Feature", "properties": { "X": -122.2030625, "Y": 47.3895625, "OBJECTID": null, "FEATURE_ID": null, "ESITE": null, "CODE": null, "NAME": "Pacific Halal Market", "ADDRESS": "23643 104th Ave SE", "ZIPCODE": null, "CITY": "Kent", "SEAT_CAP": "Grocery store" }, "geometry": { "type": "Point", "coordinates": [ -122.2030625, 47.3895625 ] } },
{ "type": "Feature", "properties": { "X": -122.1633125, "Y": 47.3873125, "OBJECTID": null, "FEATURE_ID": null, "ESITE": null, "CODE": null, "NAME": "QFC", "ADDRESS": "13304 SE 240th St", "ZIPCODE": null, "CITY": "Kent", "SEAT_CAP": "Grocery store" }, "geometry": { "type": "Point", "coordinates": [ -122.1633125, 47.3873125 ] } },
{ "type": "Feature", "properties": { "X": -122.1666875, "Y": 47.3566875, "OBJECTID": null, "FEATURE_ID": null, "ESITE": null, "CODE": null, "NAME": "Safeway", "ADDRESS": "13101 SE Kent-Kangley Rd", "ZIPCODE": null, "CITY": "Kent", "SEAT_CAP": "Grocery store" }, "geometry": { "type": "Point", "coordinates": [ -122.1666875, 47.3566875 ] } },
{ "type": "Feature", "properties": { "X": -122.1955625, "Y": 47.4151875, "OBJECTID": null, "FEATURE_ID": null, "ESITE": null, "CODE": null, "NAME": "Safeway", "ADDRESS": "20830 108th Ave SE", "ZIPCODE": null, "CITY": "Kent", "SEAT_CAP": "Grocery store" }, "geometry": { "type": "Point", "coordinates": [ -122.1955625, 47.4151875 ] } },
{ "type": "Feature", "properties": { "X": -122.2463125, "Y": 47.3805625, "OBJECTID": null, "FEATURE_ID": null, "ESITE": null, "CODE": null, "NAME": "Safeway", "ADDRESS": "210 Washington Ave S", "ZIPCODE": null, "CITY": "Kent", "SEAT_CAP": "Grocery store" }, "geometry": { "type": "Point", "coordinates": [ -122.2463125, 47.3805625 ] } },
{ "type": "Feature", "properties": { "X": -122.1660625, "Y": 47.3600625, "OBJECTID": null, "FEATURE_ID": null, "ESITE": null, "CODE": null, "NAME": "Trader Joe's", "ADDRESS": "12966 SE Kent-Kangley Rd", "ZIPCODE": null, "CITY": "Kent", "SEAT_CAP": "Grocery store" }, "geometry": { "type": "Point", "coordinates": [ -122.1660625, 47.3600625 ] } },
{ "type": "Feature", "properties": { "X": -122.2051875, "Y": 47.3690625, "OBJECTID": null, "FEATURE_ID": null, "ESITE": null, "CODE": null, "NAME": "Apna Bazar", "ADDRESS": "10120 SE 260th St", "ZIPCODE": null, "CITY": "Kent", "SEAT_CAP": "Indian grocery store" }, "geometry": { "type": "Point", "coordinates": [ -122.2051875, 47.3690625 ] } },
{ "type": "Feature", "properties": { "X": -122.2000625, "Y": 47.3866875, "OBJECTID": null, "FEATURE_ID": null, "ESITE": null, "CODE": null, "NAME": "India Village grocery store", "ADDRESS": "10457 SE 240th St", "ZIPCODE": null, "CITY": "Kent", "SEAT_CAP": "Indian grocery store" }, "geometry": { "type": "Point", "coordinates": [ -122.2000625, 47.3866875 ] } },
{ "type": "Feature", "properties": { "X": -122.2031875, "Y": 47.3888125, "OBJECTID": null, "FEATURE_ID": null, "ESITE": null, "CODE": null, "NAME": "K.K. Market", "ADDRESS": "23805 104th Ave SE", "ZIPCODE": null, "CITY": "Kent", "SEAT_CAP": "Indian grocery store" }, "geometry": { "type": "Point", "coordinates": [ -122.2031875, 47.3888125 ] } },
{ "type": "Feature", "properties": { "X": -122.2030625, "Y": 47.3903125, "OBJECTID": null, "FEATURE_ID": null, "ESITE": null, "CODE": null, "NAME": "Ravi Video & Indo\/Fiji Grocery", "ADDRESS": "23613 104th Ave SE", "ZIPCODE": null, "CITY": "Kent", "SEAT_CAP": "Indian grocery store" }, "geometry": { "type": "Point", "coordinates": [ -122.2030625, 47.3903125 ] } },
{ "type": "Feature", "properties": { "X": -122.2549375, "Y": 47.3815625, "OBJECTID": null, "FEATURE_ID": null, "ESITE": null, "CODE": null, "NAME": "Teresita's Mini Market", "ADDRESS": "1529 W Meeker St", "ZIPCODE": null, "CITY": "Kent", "SEAT_CAP": "Mexican grocery store" }, "geometry": { "type": "Point", "coordinates": [ -122.2549375, 47.3815625 ] } },
{ "type": "Feature", "properties": { "X": -122.2189375, "Y": 47.4145625, "OBJECTID": null, "FEATURE_ID": null, "ESITE": null, "CODE": null, "NAME": "WinCo Foods", "ADDRESS": "21100 91st Pl S", "ZIPCODE": null, "CITY": "Kent", "SEAT_CAP": "Supermarket" }, "geometry": { "type": "Point", "coordinates": [ -122.2189375, 47.4145625 ] } },
{ "type": "Feature", "properties": { "X": -122.1662673, "Y": 47.66590591, "OBJECTID": 630, "FEATURE_ID": 351064, "ESITE": 0, "CODE": 350, "NAME": "Bridle Trail Red Apple Market-Grocery", "ADDRESS": "6625 132ND AVE NE", "ZIPCODE": 98033, "CITY": "Kirkland", "SEAT_CAP": "Grocery" }, "geometry": { "type": "Point", "coordinates": [ -122.1662673, 47.66590591 ] } },
{ "type": "Feature", "properties": { "X": -122.1841875, "Y": 47.7078125, "OBJECTID": null, "FEATURE_ID": null, "ESITE": null, "CODE": null, "NAME": "Fred Meyer", "ADDRESS": "12221 120th Ave NE", "ZIPCODE": null, "CITY": "Kirkland", "SEAT_CAP": "Grocery store" }, "geometry": { "type": "Point", "coordinates": [ -122.1841875, 47.7078125 ] } },
{ "type": "Feature", "properties": { "X": -122.2063125, "Y": 47.7233125, "OBJECTID": null, "FEATURE_ID": null, "ESITE": null, "CODE": null, "NAME": "Safeway", "ADDRESS": "10020 NE 137th St", "ZIPCODE": null, "CITY": "Kirkland", "SEAT_CAP": "Grocery store" }, "geometry": { "type": "Point", "coordinates": [ -122.2063125, 47.7233125 ] } },
{ "type": "Feature", "properties": { "X": -122.1734375, "Y": 47.6788125, "OBJECTID": null, "FEATURE_ID": null, "ESITE": null, "CODE": null, "NAME": "Safeway", "ADDRESS": "12519 NE 85th St", "ZIPCODE": null, "CITY": "Kirkland", "SEAT_CAP": "Grocery store" }, "geometry": { "type": "Point", "coordinates": [ -122.1734375, 47.6788125 ] } },
{ "type": "Feature", "properties": { "X": -122.1740625, "Y": 47.7325625, "OBJECTID": null, "FEATURE_ID": null, "ESITE": null, "CODE": null, "NAME": "Safeway", "ADDRESS": "14444 124th Ave NE", "ZIPCODE": null, "CITY": "Kirkland", "SEAT_CAP": "Grocery store" }, "geometry": { "type": "Point", "coordinates": [ -122.1740625, 47.7325625 ] } },
{ "type": "Feature", "properties": { "X": -122.3135337, "Y": 47.76961289, "OBJECTID": 959, "FEATURE_ID": 350364, "ESITE": 0, "CODE": 350, "NAME": "Arctic Mini Mart", "ADDRESS": "19246 15TH AVE NE", "ZIPCODE": 98155, "CITY": "Lake Forest Park", "SEAT_CAP": "Grocery" }, "geometry": { "type": "Point", "coordinates": [ -122.3135337, 47.76961289 ] } },
{ "type": "Feature", "properties": { "X": -122.2795886, "Y": 47.75403961, "OBJECTID": 1987, "FEATURE_ID": 352312, "ESITE": 0, "CODE": 350, "NAME": "Grocery", "ADDRESS": "17171 BOTHELL WAY NE", "ZIPCODE": 98155, "CITY": "Lake Forest Park", "SEAT_CAP": "Grocery" }, "geometry": { "type": "Point", "coordinates": [ -122.2795886, 47.75403961 ] } },
{ "type": "Feature", "properties": { "X": -122.0191875, "Y": 47.3639375, "OBJECTID": null, "FEATURE_ID": null, "ESITE": null, "CODE": null, "NAME": "Fred Meyer", "ADDRESS": "26520 Maple Valley Black Diamond Rd SE", "ZIPCODE": null, "CITY": "Maple Valley", "SEAT_CAP": "Grocery store" }, "geometry": { "type": "Point", "coordinates": [ -122.0191875, 47.3639375 ] } },
{ "type": "Feature", "properties": { "X": -122.0450625, "Y": 47.3881875, "OBJECTID": null, "FEATURE_ID": null, "ESITE": null, "CODE": null, "NAME": "QFC", "ADDRESS": "22131 SE 237th St", "ZIPCODE": null, "CITY": "Maple Valley", "SEAT_CAP": "Grocery store" }, "geometry": { "type": "Point", "coordinates": [ -122.0450625, 47.3881875 ] } },
{ "type": "Feature", "properties": { "X": -122.0183125, "Y": 47.3603125, "OBJECTID": null, "FEATURE_ID": null, "ESITE": null, "CODE": null, "NAME": "Safeway", "ADDRESS": "26916 Renton-Maple Valley Rd", "ZIPCODE": null, "CITY": "Maple Valley", "SEAT_CAP": "Grocery store" }, "geometry": { "type": "Point", "coordinates": [ -122.0183125, 47.3603125 ] } },
{ "type": "Feature", "properties": { "X": -122.2326875, "Y": 47.5849375, "OBJECTID": null, "FEATURE_ID": null, "ESITE": null, "CODE": null, "NAME": "QFC", "ADDRESS": "7823 SE 28th St", "ZIPCODE": null, "CITY": "Mercer Island", "SEAT_CAP": "Grocery store" }, "geometry": { "type": "Point", "coordinates": [ -122.2326875, 47.5849375 ] } },
{ "type": "Feature", "properties": { "X": -122.2256875, "Y": 47.5413125, "OBJECTID": null, "FEATURE_ID": null, "ESITE": null, "CODE": null, "NAME": "QFC", "ADDRESS": "8421 SE 68th St", "ZIPCODE": null, "CITY": "Mercer Island", "SEAT_CAP": "Grocery store" }, "geometry": { "type": "Point", "coordinates": [ -122.2256875, 47.5413125 ] } },
{ "type": "Feature", "properties": { "X": -122.2959375, "Y": 47.2489375, "OBJECTID": null, "FEATURE_ID": null, "ESITE": null, "CODE": null, "NAME": "Safeway", "ADDRESS": "900 Meridian Ave E Suite 12", "ZIPCODE": null, "CITY": "Milton", "SEAT_CAP": "Grocery store" }, "geometry": { "type": "Point", "coordinates": [ -122.2959375, 47.2489375 ] } },
{ "type": "Feature", "properties": { "X": -122.1648125, "Y": 47.5390625, "OBJECTID": null, "FEATURE_ID": null, "ESITE": null, "CODE": null, "NAME": "QFC", "ADDRESS": "6940 Coal Creek Pkwy SE", "ZIPCODE": null, "CITY": "Newcastle", "SEAT_CAP": "Grocery store" }, "geometry": { "type": "Point", "coordinates": [ -122.1648125, 47.5390625 ] } },
{ "type": "Feature", "properties": { "X": -122.1674375, "Y": 47.5396875, "OBJECTID": null, "FEATURE_ID": null, "ESITE": null, "CODE": null, "NAME": "Safeway", "ADDRESS": "6911 Coal Creek Pkwy SE", "ZIPCODE": null, "CITY": "Newcastle", "SEAT_CAP": "Grocery store" }, "geometry": { "type": "Point", "coordinates": [ -122.1674375, 47.5396875 ] } },
{ "type": "Feature", "properties": { "X": -122.3354375, "Y": 47.4416875, "OBJECTID": null, "FEATURE_ID": null, "ESITE": null, "CODE": null, "NAME": "QFC", "ADDRESS": "17847 1st Ave S", "ZIPCODE": null, "CITY": "Normandy Park", "SEAT_CAP": "Grocery store" }, "geometry": { "type": "Point", "coordinates": [ -122.3354375, 47.4416875 ] } },
{ "type": "Feature", "properties": { "X": -121.7806875, "Y": 47.4931875, "OBJECTID": null, "FEATURE_ID": null, "ESITE": null, "CODE": null, "NAME": "QFC", "ADDRESS": "460 E North Bend Way", "ZIPCODE": null, "CITY": "North Bend", "SEAT_CAP": "Grocery store" }, "geometry": { "type": "Point", "coordinates": [ -121.7806875, 47.4931875 ] } },
{ "type": "Feature", "properties": { "X": -121.7914375, "Y": 47.4873125, "OBJECTID": null, "FEATURE_ID": null, "ESITE": null, "CODE": null, "NAME": "Safeway", "ADDRESS": "460 SW Mt Si Blvd", "ZIPCODE": null, "CITY": "North Bend", "SEAT_CAP": "Grocery store" }, "geometry": { "type": "Point", "coordinates": [ -121.7914375, 47.4873125 ] } },
{ "type": "Feature", "properties": { "X": -122.1213555, "Y": 47.67809697, "OBJECTID": 2126, "FEATURE_ID": 351781, "ESITE": 0, "CODE": 350, "NAME": "Corner Market", "ADDRESS": "8460 164TH ST NE", "ZIPCODE": 98052, "CITY": "Redmond", "SEAT_CAP": "Grocery" }, "geometry": { "type": "Point", "coordinates": [ -122.1213555, 47.67809697 ] } },
{ "type": "Feature", "properties": { "X": -122.1423125, "Y": 47.6283125, "OBJECTID": null, "FEATURE_ID": null, "ESITE": null, "CODE": null, "NAME": "Amazon Go Grocery", "ADDRESS": "2010 148th Ave NE Ste 160", "ZIPCODE": null, "CITY": "Redmond", "SEAT_CAP": "Grocery store" }, "geometry": { "type": "Point", "coordinates": [ -122.1423125, 47.6283125 ] } },
{ "type": "Feature", "properties": { "X": -122.1045625, "Y": 47.6705625, "OBJECTID": null, "FEATURE_ID": null, "ESITE": null, "CODE": null, "NAME": "Fred Meyer", "ADDRESS": "17667 NE 76th St", "ZIPCODE": null, "CITY": "Redmond", "SEAT_CAP": "Grocery store" }, "geometry": { "type": "Point", "coordinates": [ -122.1045625, 47.6705625 ] } },
{ "type": "Feature", "properties": { "X": -122.1289375, "Y": 47.6758125, "OBJECTID": null, "FEATURE_ID": null, "ESITE": null, "CODE": null, "NAME": "QFC", "ADDRESS": "15800 Redmond Way", "ZIPCODE": null, "CITY": "Redmond", "SEAT_CAP": "Grocery store" }, "geometry": { "type": "Point", "coordinates": [ -122.1289375, 47.6758125 ] } },
{ "type": "Feature", "properties": { "X": -122.0261875, "Y": 47.6988125, "OBJECTID": null, "FEATURE_ID": null, "ESITE": null, "CODE": null, "NAME": "QFC", "ADDRESS": "23475 NE Novelty Hill Rd", "ZIPCODE": null, "CITY": "Redmond", "SEAT_CAP": "Grocery store" }, "geometry": { "type": "Point", "coordinates": [ -122.0261875, 47.6988125 ] } },
{ "type": "Feature", "properties": { "X": -122.1264375, "Y": 47.6808125, "OBJECTID": null, "FEATURE_ID": null, "ESITE": null, "CODE": null, "NAME": "QFC", "ADDRESS": "8867 161st Avenue Northeast", "ZIPCODE": null, "CITY": "Redmond", "SEAT_CAP": "Grocery store" }, "geometry": { "type": "Point", "coordinates": [ -122.1264375, 47.6808125 ] } },
{ "type": "Feature", "properties": { "X": -122.1401875, "Y": 47.6325625, "OBJECTID": null, "FEATURE_ID": null, "ESITE": null, "CODE": null, "NAME": "Safeway", "ADDRESS": "15000 NE 24th St", "ZIPCODE": null, "CITY": "Redmond", "SEAT_CAP": "Grocery store" }, "geometry": { "type": "Point", "coordinates": [ -122.1401875, 47.6325625 ] } },
{ "type": "Feature", "properties": { "X": -122.1099375, "Y": 47.6719375, "OBJECTID": null, "FEATURE_ID": null, "ESITE": null, "CODE": null, "NAME": "Safeway", "ADDRESS": "17246 Redmond Way", "ZIPCODE": null, "CITY": "Redmond", "SEAT_CAP": "Grocery store" }, "geometry": { "type": "Point", "coordinates": [ -122.1099375, 47.6719375 ] } },
{ "type": "Feature", "properties": { "X": -122.2123125, "Y": 47.4699375, "OBJECTID": null, "FEATURE_ID": null, "ESITE": null, "CODE": null, "NAME": "Uwajimaya Renton", "ADDRESS": "501 S Grady Way", "ZIPCODE": null, "CITY": "Renton", "SEAT_CAP": "Asian grocery store" }, "geometry": { "type": "Point", "coordinates": [ -122.2123125, 47.4699375 ] } },
{ "type": "Feature", "properties": { "X": -122.1998125, "Y": 47.4963125, "OBJECTID": null, "FEATURE_ID": null, "ESITE": null, "CODE": null, "NAME": "Target", "ADDRESS": "1215 N Landing Way", "ZIPCODE": null, "CITY": "Renton", "SEAT_CAP": "Department store" }, "geometry": { "type": "Point", "coordinates": [ -122.1998125, 47.4963125 ] } },
{ "type": "Feature", "properties": { "X": -122.2209375, "Y": 47.4719375, "OBJECTID": null, "FEATURE_ID": null, "ESITE": null, "CODE": null, "NAME": "Walmart Supercenter", "ADDRESS": "743 Rainier Ave S", "ZIPCODE": null, "CITY": "Renton", "SEAT_CAP": "Department store" }, "geometry": { "type": "Point", "coordinates": [ -122.2209375, 47.4719375 ] } },
{ "type": "Feature", "properties": { "X": -122.1519583, "Y": 47.44443481, "OBJECTID": 820, "FEATURE_ID": 350208, "ESITE": 0, "CODE": 350, "NAME": "Albertsons #470", "ADDRESS": "14215 SE PETROVITSKY RD", "ZIPCODE": 98058, "CITY": "Renton", "SEAT_CAP": "Grocery" }, "geometry": { "type": "Point", "coordinates": [ -122.1519583, 47.44443481 ] } },
{ "type": "Feature", "properties": { "X": -122.1869064, "Y": 47.47753881, "OBJECTID": 78, "FEATURE_ID": 350850, "ESITE": 0, "CODE": 350, "NAME": "Bill And Johns Food Center", "ADDRESS": "2439 MAPLE VALLEY RD S", "ZIPCODE": 98057, "CITY": "Renton", "SEAT_CAP": "Grocery" }, "geometry": { "type": "Point", "coordinates": [ -122.1869064, 47.47753881 ] } },
{ "type": "Feature", "properties": { "X": -122.1726034, "Y": 47.47527854, "OBJECTID": 2107, "FEATURE_ID": 351410, "ESITE": 0, "CODE": 350, "NAME": "Cedar River Market", "ADDRESS": "3418 SE 6TH ST", "ZIPCODE": 98058, "CITY": "Renton", "SEAT_CAP": "Grocery" }, "geometry": { "type": "Point", "coordinates": [ -122.1726034, 47.47527854 ] } },
{ "type": "Feature", "properties": { "X": -122.2225726, "Y": 47.4731703, "OBJECTID": 1699, "FEATURE_ID": 351943, "ESITE": 0, "CODE": 350, "NAME": "D.K. Market", "ADDRESS": "720 Lind AVE SW", "ZIPCODE": 98057, "CITY": "Renton", "SEAT_CAP": "Grocery" }, "geometry": { "type": "Point", "coordinates": [ -122.2225726, 47.4731703 ] } },
{ "type": "Feature", "properties": { "X": -122.1764454, "Y": 47.51267759, "OBJECTID": null, "FEATURE_ID": null, "ESITE": null, "CODE": null, "NAME": "Viet-Wah Asian Food Market", "ADDRESS": "2825 NE Sunset Blvd", "ZIPCODE": null, "CITY": "Renton", "SEAT_CAP": "Grocery" }, "geometry": { "type": "Point", "coordinates": [ -122.1764454, 47.51267759 ] } },
{ "type": "Feature", "properties": { "X": -122.2141875, "Y": 47.4759375, "OBJECTID": null, "FEATURE_ID": null, "ESITE": null, "CODE": null, "NAME": "101 Deli & Grocery Mart II", "ADDRESS": "534 Rainier Ave S", "ZIPCODE": null, "CITY": "Renton", "SEAT_CAP": "Grocery store" }, "geometry": { "type": "Point", "coordinates": [ -122.2141875, 47.4759375 ] } },
{ "type": "Feature", "properties": { "X": -122.1573125, "Y": 47.5036875, "OBJECTID": null, "FEATURE_ID": null, "ESITE": null, "CODE": null, "NAME": "Albertson's", "ADDRESS": "4621 NE Sunset Blvd", "ZIPCODE": null, "CITY": "Renton", "SEAT_CAP": "Grocery store" }, "geometry": { "type": "Point", "coordinates": [ -122.1573125, 47.5036875 ] } },
{ "type": "Feature", "properties": { "X": -122.2165625, "Y": 47.4836875, "OBJECTID": null, "FEATURE_ID": null, "ESITE": null, "CODE": null, "NAME": "Al-Madina Grocery", "ADDRESS": "81 S Tobin St", "ZIPCODE": null, "CITY": "Renton", "SEAT_CAP": "Grocery store" }, "geometry": { "type": "Point", "coordinates": [ -122.2165625, 47.4836875 ] } },
{ "type": "Feature", "properties": { "X": -122.1988125, "Y": 47.4844375, "OBJECTID": null, "FEATURE_ID": null, "ESITE": null, "CODE": null, "NAME": "Bronson Market", "ADDRESS": "1408 Bronson Way N", "ZIPCODE": null, "CITY": "Renton", "SEAT_CAP": "Grocery store" }, "geometry": { "type": "Point", "coordinates": [ -122.1988125, 47.4844375 ] } },
{ "type": "Feature", "properties": { "X": -122.2139375, "Y": 47.4760625, "OBJECTID": null, "FEATURE_ID": null, "ESITE": null, "CODE": null, "NAME": "California Market Renton", "ADDRESS": "536 Rainier Ave S", "ZIPCODE": null, "CITY": "Renton", "SEAT_CAP": "Grocery store" }, "geometry": { "type": "Point", "coordinates": [ -122.2139375, 47.4760625 ] } },
{ "type": "Feature", "properties": { "X": -122.1991875, "Y": 47.4430625, "OBJECTID": null, "FEATURE_ID": null, "ESITE": null, "CODE": null, "NAME": "Fred Meyer", "ADDRESS": "17801 108th Ave SE", "ZIPCODE": null, "CITY": "Renton", "SEAT_CAP": "Grocery store" }, "geometry": { "type": "Point", "coordinates": [ -122.1991875, 47.4430625 ] } },
{ "type": "Feature", "properties": { "X": -122.2190625, "Y": 47.4773125, "OBJECTID": null, "FEATURE_ID": null, "ESITE": null, "CODE": null, "NAME": "Fred Meyer", "ADDRESS": "365 Renton Center Way SW", "ZIPCODE": null, "CITY": "Renton", "SEAT_CAP": "Grocery store" }, "geometry": { "type": "Point", "coordinates": [ -122.2190625, 47.4773125 ] } },
{ "type": "Feature", "properties": { "X": -122.1795625, "Y": 47.5004375, "OBJECTID": null, "FEATURE_ID": null, "ESITE": null, "CODE": null, "NAME": "Grocery Outlet", "ADDRESS": "2809 NE Sunset Blvd", "ZIPCODE": null, "CITY": "Renton", "SEAT_CAP": "Grocery store" }, "geometry": { "type": "Point", "coordinates": [ -122.1795625, 47.5004375 ] } },
{ "type": "Feature", "properties": { "X": -122.2144375, "Y": 47.4765625, "OBJECTID": null, "FEATURE_ID": null, "ESITE": null, "CODE": null, "NAME": "Latin Market", "ADDRESS": "217 S 4th Pl", "ZIPCODE": null, "CITY": "Renton", "SEAT_CAP": "Grocery store" }, "geometry": { "type": "Point", "coordinates": [ -122.2144375, 47.4765625 ] } },
{ "type": "Feature", "properties": { "X": -122.1856875, "Y": 47.4493125, "OBJECTID": null, "FEATURE_ID": null, "ESITE": null, "CODE": null, "NAME": "Mi Casa Market", "ADDRESS": "17174 116th Ave SE", "ZIPCODE": null, "CITY": "Renton", "SEAT_CAP": "Grocery store" }, "geometry": { "type": "Point", "coordinates": [ -122.1856875, 47.4493125 ] } },
{ "type": "Feature", "properties": { "X": -122.2176875, "Y": 47.4788125, "OBJECTID": null, "FEATURE_ID": null, "ESITE": null, "CODE": null, "NAME": "Pabla Indian Grocery", "ADDRESS": "364 Renton Center Way SW", "ZIPCODE": null, "CITY": "Renton", "SEAT_CAP": "Grocery store" }, "geometry": { "type": "Point", "coordinates": [ -122.2176875, 47.4788125 ] } },
{ "type": "Feature", "properties": { "X": -122.1549375, "Y": 47.4899375, "OBJECTID": null, "FEATURE_ID": null, "ESITE": null, "CODE": null, "NAME": "QFC", "ADDRESS": "4800 NE 4th St", "ZIPCODE": null, "CITY": "Renton", "SEAT_CAP": "Grocery store" }, "geometry": { "type": "Point", "coordinates": [ -122.1549375, 47.4899375 ] } },
{ "type": "Feature", "properties": { "X": -122.1769375, "Y": 47.5050625, "OBJECTID": null, "FEATURE_ID": null, "ESITE": null, "CODE": null, "NAME": "Saar's Super Saver Foods", "ADDRESS": "3208 NE Sunset Blvd", "ZIPCODE": null, "CITY": "Renton", "SEAT_CAP": "Grocery store" }, "geometry": { "type": "Point", "coordinates": [ -122.1769375, 47.5050625 ] } },
{ "type": "Feature", "properties": { "X": -122.1524375, "Y": 47.4474375, "OBJECTID": null, "FEATURE_ID": null, "ESITE": null, "CODE": null, "NAME": "Safeway", "ADDRESS": "17230 140th Ave SE", "ZIPCODE": null, "CITY": "Renton", "SEAT_CAP": "Grocery store" }, "geometry": { "type": "Point", "coordinates": [ -122.1524375, 47.4474375 ] } },
{ "type": "Feature", "properties": { "X": -122.2143125, "Y": 47.4801875, "OBJECTID": null, "FEATURE_ID": null, "ESITE": null, "CODE": null, "NAME": "Safeway", "ADDRESS": "200 S 3rd St", "ZIPCODE": null, "CITY": "Renton", "SEAT_CAP": "Grocery store" }, "geometry": { "type": "Point", "coordinates": [ -122.2143125, 47.4801875 ] } },
{ "type": "Feature", "properties": { "X": -122.1801875, "Y": 47.4990625, "OBJECTID": null, "FEATURE_ID": null, "ESITE": null, "CODE": null, "NAME": "Safeway", "ADDRESS": "2725 NE Sunset Blvd", "ZIPCODE": null, "CITY": "Renton", "SEAT_CAP": "Grocery store" }, "geometry": { "type": "Point", "coordinates": [ -122.1801875, 47.4990625 ] } },
{ "type": "Feature", "properties": { "X": -122.1611875, "Y": 47.4898125, "OBJECTID": null, "FEATURE_ID": null, "ESITE": null, "CODE": null, "NAME": "Safeway", "ADDRESS": "4300 NE 4th St", "ZIPCODE": null, "CITY": "Renton", "SEAT_CAP": "Grocery store" }, "geometry": { "type": "Point", "coordinates": [ -122.1611875, 47.4898125 ] } },
{ "type": "Feature", "properties": { "X": -122.2186875, "Y": 47.4889375, "OBJECTID": null, "FEATURE_ID": null, "ESITE": null, "CODE": null, "NAME": "Carniceria Los Compadres #3", "ADDRESS": "419 Rainier Ave N", "ZIPCODE": null, "CITY": "Renton", "SEAT_CAP": "Mexican grocery store" }, "geometry": { "type": "Point", "coordinates": [ -122.2186875, 47.4889375 ] } },
{ "type": "Feature", "properties": { "X": -122.2243125, "Y": 47.4488125, "OBJECTID": null, "FEATURE_ID": null, "ESITE": null, "CODE": null, "NAME": "La Mexicana Tortilla", "ADDRESS": "3401 Lind Ave SW", "ZIPCODE": null, "CITY": "Renton", "SEAT_CAP": "Mexican restaurant" }, "geometry": { "type": "Point", "coordinates": [ -122.2243125, 47.4488125 ] } },
{ "type": "Feature", "properties": { "X": -122.1820625, "Y": 47.4979375, "OBJECTID": null, "FEATURE_ID": null, "ESITE": null, "CODE": null, "NAME": "Tienda Latina", "ADDRESS": "927 Harrington Ave NE", "ZIPCODE": null, "CITY": "Renton", "SEAT_CAP": "Money order service" }, "geometry": { "type": "Point", "coordinates": [ -122.1820625, 47.4979375 ] } },
{ "type": "Feature", "properties": { "X": -122.2049375, "Y": 47.4635625, "OBJECTID": null, "FEATURE_ID": null, "ESITE": null, "CODE": null, "NAME": "Southern Specialties", "ADDRESS": "1900 S Puget Dr # 204", "ZIPCODE": null, "CITY": "Renton", "SEAT_CAP": "Produce market" }, "geometry": { "type": "Point", "coordinates": [ -122.2049375, 47.4635625 ] } },
{ "type": "Feature", "properties": { "X": -122.0329375, "Y": 47.5833125, "OBJECTID": null, "FEATURE_ID": null, "ESITE": null, "CODE": null, "NAME": "QFC", "ADDRESS": "2902 228th Ave SE", "ZIPCODE": null, "CITY": "Sammamish", "SEAT_CAP": "Grocery store" }, "geometry": { "type": "Point", "coordinates": [ -122.0329375, 47.5833125 ] } },
{ "type": "Feature", "properties": { "X": -122.0334375, "Y": 47.6151875, "OBJECTID": null, "FEATURE_ID": null, "ESITE": null, "CODE": null, "NAME": "Safeway", "ADDRESS": "630 228th Ave NE", "ZIPCODE": null, "CITY": "Sammamish", "SEAT_CAP": "Grocery store" }, "geometry": { "type": "Point", "coordinates": [ -122.0334375, 47.6151875 ] } },
{ "type": "Feature", "properties": { "X": -122.2893125, "Y": 47.4674375, "OBJECTID": null, "FEATURE_ID": null, "ESITE": null, "CODE": null, "NAME": "N W Halal Mediterranean Grocery", "ADDRESS": "15047 Military Rd S", "ZIPCODE": null, "CITY": "SeaTac", "SEAT_CAP": "Grocery store" }, "geometry": { "type": "Point", "coordinates": [ -122.2893125, 47.4674375 ] } },
{ "type": "Feature", "properties": { "X": -122.2895625, "Y": 47.4676875, "OBJECTID": null, "FEATURE_ID": null, "ESITE": null, "CODE": null, "NAME": "Tawakal Supermarket + Halal Grocery + Deli + Bakery", "ADDRESS": "15035 Military Rd S", "ZIPCODE": null, "CITY": "SeaTac", "SEAT_CAP": "Grocery store" }, "geometry": { "type": "Point", "coordinates": [ -122.2895625, 47.4676875 ] } },
{ "type": "Feature", "properties": { "X": -122.3555625, "Y": 47.5143125, "OBJECTID": null, "FEATURE_ID": null, "ESITE": null, "CODE": null, "NAME": "C&T Asian Market", "ADDRESS": "9841 16th Ave SW", "ZIPCODE": null, "CITY": "Seattle", "SEAT_CAP": "Asian grocery store" }, "geometry": { "type": "Point", "coordinates": [ -122.3555625, 47.5143125 ] } },
{ "type": "Feature", "properties": { "X": -122.3051875, "Y": 47.5599375, "OBJECTID": null, "FEATURE_ID": null, "ESITE": null, "CODE": null, "NAME": "Fou Lee Market & Deli", "ADDRESS": "2050 S Columbian Way", "ZIPCODE": null, "CITY": "Seattle", "SEAT_CAP": "Asian grocery store" }, "geometry": { "type": "Point", "coordinates": [ -122.3051875, 47.5599375 ] } },
{ "type": "Feature", "properties": { "X": -122.3161325, "Y": 47.59889013, "OBJECTID": null, "FEATURE_ID": null, "ESITE": null, "CODE": null, "NAME": "Lam's Seafood Asian Market", "ADDRESS": "1221 S King St", "ZIPCODE": null, "CITY": "Seattle", "SEAT_CAP": "Asian grocery store" }, "geometry": { "type": "Point", "coordinates": [ -122.3161325, 47.59889013 ] } },
{ "type": "Feature", "properties": { "X": -122.3526875, "Y": 47.5150625, "OBJECTID": null, "FEATURE_ID": null, "ESITE": null, "CODE": null, "NAME": "New Golden Village Market", "ADDRESS": "9810 14th Ave SW", "ZIPCODE": null, "CITY": "Seattle", "SEAT_CAP": "Asian grocery store" }, "geometry": { "type": "Point", "coordinates": [ -122.3526875, 47.5150625 ] } },
{ "type": "Feature", "properties": { "X": -122.2820625, "Y": 47.5381875, "OBJECTID": null, "FEATURE_ID": null, "ESITE": null, "CODE": null, "NAME": "Phnom Penh Market (Cambodian)", "ADDRESS": "7123 Martin Luther King Jr Way S", "ZIPCODE": null, "CITY": "Seattle", "SEAT_CAP": "Asian grocery store" }, "geometry": { "type": "Point", "coordinates": [ -122.2820625, 47.5381875 ] } },
{ "type": "Feature", "properties": { "X": -122.3269375, "Y": 47.5968125, "OBJECTID": null, "FEATURE_ID": null, "ESITE": null, "CODE": null, "NAME": "Uwajimaya Seattle", "ADDRESS": "600 5th Ave S", "ZIPCODE": null, "CITY": "Seattle", "SEAT_CAP": "Asian grocery store" }, "geometry": { "type": "Point", "coordinates": [ -122.3269375, 47.5968125 ] } },
{ "type": "Feature", "properties": { "X": -122.2844375, "Y": 47.5461875, "OBJECTID": null, "FEATURE_ID": null, "ESITE": null, "CODE": null, "NAME": "Vientiane Grocery", "ADDRESS": "3828 S Graham St Unit C", "ZIPCODE": null, "CITY": "Seattle", "SEAT_CAP": "Asian grocery store" }, "geometry": { "type": "Point", "coordinates": [ -122.2844375, 47.5461875 ] } },
{ "type": "Feature", "properties": { "X": -122.3546875, "Y": 47.5156875, "OBJECTID": null, "FEATURE_ID": null, "ESITE": null, "CODE": null, "NAME": "Grocery Plus", "ADDRESS": "9660 16th Ave SW", "ZIPCODE": null, "CITY": "Seattle", "SEAT_CAP": "Convenience store" }, "geometry": { "type": "Point", "coordinates": [ -122.3546875, 47.5156875 ] } },
{ "type": "Feature", "properties": { "X": -122.2946149, "Y": 47.57450075, "OBJECTID": 116, "FEATURE_ID": 350030, "ESITE": 0, "CODE": 350, "NAME": "Abarrotes El Mexicano", "ADDRESS": "3218 RAINIER AVE S", "ZIPCODE": 98144, "CITY": "Seattle", "SEAT_CAP": "Grocery" }, "geometry": { "type": "Point", "coordinates": [ -122.2946149, 47.57450075 ] } },
{ "type": "Feature", "properties": { "X": -122.3138815, "Y": 47.56303484, "OBJECTID": 117, "FEATURE_ID": 350031, "ESITE": 0, "CODE": 350, "NAME": "Abarrotes El Oaxaqueno", "ADDRESS": "4515 15TH AVE S", "ZIPCODE": 98108, "CITY": "Seattle", "SEAT_CAP": "Grocery" }, "geometry": { "type": "Point", "coordinates": [ -122.3138815, 47.56303484 ] } },
{ "type": "Feature", "properties": { "X": -122.3456321, "Y": 47.61378366, "OBJECTID": 1, "FEATURE_ID": 350001, "ESITE": 0, "CODE": 350, "NAME": "A'Jhang Market", "ADDRESS": "2237 2ND AVE", "ZIPCODE": 98121, "CITY": "Seattle", "SEAT_CAP": "Grocery" }, "geometry": { "type": "Point", "coordinates": [ -122.3456321, 47.61378366 ] } },
{ "type": "Feature", "properties": { "X": -122.4128921, "Y": 47.57821422, "OBJECTID": 2234, "FEATURE_ID": 350225, "ESITE": 0, "CODE": 350, "NAME": "Alki Urban Market", "ADDRESS": "2820 ALKI AVE SW", "ZIPCODE": 98116, "CITY": "Seattle", "SEAT_CAP": "Grocery" }, "geometry": { "type": "Point", "coordinates": [ -122.4128921, 47.57821422 ] } },
{ "type": "Feature", "properties": { "X": -122.2971039, "Y": 47.42239313, "OBJECTID": 836, "FEATURE_ID": 350229, "ESITE": 0, "CODE": 350, "NAME": "All Star Grocery & Video", "ADDRESS": "2825 S 200TH ST", "ZIPCODE": 98198, "CITY": "Seattle", "SEAT_CAP": "Grocery" }, "geometry": { "type": "Point", "coordinates": [ -122.2971039, 47.42239313 ] } },
{ "type": "Feature", "properties": { "X": -122.2798362, "Y": 47.49222416, "OBJECTID": 839, "FEATURE_ID": 350232, "ESITE": 0, "CODE": 350, "NAME": "Allentown Superette", "ADDRESS": "12404 42ND AVE S", "ZIPCODE": 98168, "CITY": "Seattle", "SEAT_CAP": "Grocery" }, "geometry": { "type": "Point", "coordinates": [ -122.2798362, 47.49222416 ] } },
{ "type": "Feature", "properties": { "X": -122.2884721, "Y": 47.53265598, "OBJECTID": 841, "FEATURE_ID": 350234, "ESITE": 0, "CODE": 350, "NAME": "Aloha Grocery Store", "ADDRESS": "7762 BEACON AVE S", "ZIPCODE": 98118, "CITY": "Seattle", "SEAT_CAP": "Grocery" }, "geometry": { "type": "Point", "coordinates": [ -122.2884721, 47.53265598 ] } },
{ "type": "Feature", "properties": { "X": -122.35042, "Y": 47.48995526, "OBJECTID": 877, "FEATURE_ID": 350271, "ESITE": 0, "CODE": 350, "NAME": "Ambaum Grocery", "ADDRESS": "12609 AMBAUM BL SW", "ZIPCODE": 98146, "CITY": "Seattle", "SEAT_CAP": "Grocery" }, "geometry": { "type": "Point", "coordinates": [ -122.35042, 47.48995526 ] } },
{ "type": "Feature", "properties": { "X": -122.3144442, "Y": 47.58383146, "OBJECTID": 43, "FEATURE_ID": 350398, "ESITE": 0, "CODE": 350, "NAME": "Asian Express", "ADDRESS": "2122 14TH AVE S", "ZIPCODE": 98144, "CITY": "Seattle", "SEAT_CAP": "Grocery" }, "geometry": { "type": "Point", "coordinates": [ -122.3144442, 47.58383146 ] } },
{ "type": "Feature", "properties": { "X": -122.346426, "Y": 47.72545805, "OBJECTID": 1031, "FEATURE_ID": 350466, "ESITE": 0, "CODE": 350, "NAME": "Aurora Grocery Outlet", "ADDRESS": "13201 AURORA AVE N", "ZIPCODE": 98133, "CITY": "Seattle", "SEAT_CAP": "Grocery" }, "geometry": { "type": "Point", "coordinates": [ -122.346426, 47.72545805 ] } },
{ "type": "Feature", "properties": { "X": -122.2703301, "Y": 47.53126486, "OBJECTID": 1083, "FEATURE_ID": 350524, "ESITE": 0, "CODE": 350, "NAME": "Bakkalch Mini Market", "ADDRESS": "7909 A RAINIER AVE S", "ZIPCODE": 98118, "CITY": "Seattle", "SEAT_CAP": "Grocery" }, "geometry": { "type": "Point", "coordinates": [ -122.2703301, 47.53126486 ] } },
{ "type": "Feature", "properties": { "X": -122.3743007, "Y": 47.66983912, "OBJECTID": 1094, "FEATURE_ID": 350541, "ESITE": 0, "CODE": 350, "NAME": "Ballard Market", "ADDRESS": "1400 NW 56TH ST", "ZIPCODE": 98107, "CITY": "Seattle", "SEAT_CAP": "Grocery" }, "geometry": { "type": "Point", "coordinates": [ -122.3743007, 47.66983912 ] } },
{ "type": "Feature", "properties": { "X": -122.3137407, "Y": 47.56397159, "OBJECTID": 2054, "FEATURE_ID": 350699, "ESITE": 0, "CODE": 350, "NAME": "Beacon Hill Foods", "ADDRESS": "4347 15TH AVE S", "ZIPCODE": 98108, "CITY": "Seattle", "SEAT_CAP": "Grocery" }, "geometry": { "type": "Point", "coordinates": [ -122.3137407, 47.56397159 ] } },
{ "type": "Feature", "properties": { "X": -122.313076, "Y": 47.58081952, "OBJECTID": 251, "FEATURE_ID": 350701, "ESITE": 0, "CODE": 350, "NAME": "Beacon Hill Market - Grocery", "ADDRESS": "2500 BEACON AVE S", "ZIPCODE": 98144, "CITY": "Seattle", "SEAT_CAP": "Grocery" }, "geometry": { "type": "Point", "coordinates": [ -122.313076, 47.58081952 ] } },
{ "type": "Feature", "properties": { "X": -122.3271567, "Y": 47.61432618, "OBJECTID": 328, "FEATURE_ID": 350787, "ESITE": 0, "CODE": 350, "NAME": "Bensons Grocery", "ADDRESS": "320 E PIKE ST", "ZIPCODE": 98122, "CITY": "Seattle", "SEAT_CAP": "Grocery" }, "geometry": { "type": "Point", "coordinates": [ -122.3271567, 47.61432618 ] } },
{ "type": "Feature", "properties": { "X": -122.3609994, "Y": 47.68817358, "OBJECTID": 353, "FEATURE_ID": 350818, "ESITE": 0, "CODE": 350, "NAME": "Better Meat Inc", "ADDRESS": "305 NW 82ND ST", "ZIPCODE": 98117, "CITY": "Seattle", "SEAT_CAP": "Grocery" }, "geometry": { "type": "Point", "coordinates": [ -122.3609994, 47.68817358 ] } },
{ "type": "Feature", "properties": { "X": -122.2694781, "Y": 47.52937956, "OBJECTID": 377, "FEATURE_ID": 350849, "ESITE": 0, "CODE": 350, "NAME": "Bilisee Mini Market", "ADDRESS": "8300 RAINIER AVE S", "ZIPCODE": 98118, "CITY": "Seattle", "SEAT_CAP": "Grocery" }, "geometry": { "type": "Point", "coordinates": [ -122.2694781, 47.52937956 ] } },
{ "type": "Feature", "properties": { "X": -122.3095585, "Y": 47.49529631, "OBJECTID": 2226, "FEATURE_ID": 351034, "ESITE": 0, "CODE": 350, "NAME": "Boulevard Park Thriftway- Grocery", "ADDRESS": "12000 DES MOINES MEMORIAL DR S", "ZIPCODE": 98168, "CITY": "Seattle", "SEAT_CAP": "Grocery" }, "geometry": { "type": "Point", "coordinates": [ -122.3095585, 47.49529631 ] } },
{ "type": "Feature", "properties": { "X": -122.3205068, "Y": 47.60634108, "OBJECTID": 646, "FEATURE_ID": 351082, "ESITE": 0, "CODE": 350, "NAME": "Broadway Market", "ADDRESS": "508 BROADWAY AVE", "ZIPCODE": 98122, "CITY": "Seattle", "SEAT_CAP": "Grocery" }, "geometry": { "type": "Point", "coordinates": [ -122.3205068, 47.60634108 ] } },
{ "type": "Feature", "properties": { "X": -122.3384583, "Y": 47.46763122, "OBJECTID": 710, "FEATURE_ID": 351155, "ESITE": 0, "CODE": 350, "NAME": "Burien Grocery Outlet", "ADDRESS": "236 SW 152ND ST", "ZIPCODE": 98166, "CITY": "Seattle", "SEAT_CAP": "Grocery" }, "geometry": { "type": "Point", "coordinates": [ -122.3384583, 47.46763122 ] } },
{ "type": "Feature", "properties": { "X": -122.346044, "Y": 47.46695765, "OBJECTID": 712, "FEATURE_ID": 351157, "ESITE": 0, "CODE": 350, "NAME": "Burien Mini Mart", "ADDRESS": "904 SW 152ND ST", "ZIPCODE": 98166, "CITY": "Seattle", "SEAT_CAP": "Grocery" }, "geometry": { "type": "Point", "coordinates": [ -122.346044, 47.46695765 ] } },
{ "type": "Feature", "properties": { "X": -122.386647, "Y": 47.54366155, "OBJECTID": 2183, "FEATURE_ID": 351181, "ESITE": 0, "CODE": 350, "NAME": "C & F Food Store", "ADDRESS": "6540 CALIFORNIA AVE SW", "ZIPCODE": 98136, "CITY": "Seattle", "SEAT_CAP": "Grocery" }, "geometry": { "type": "Point", "coordinates": [ -122.386647, 47.54366155 ] } },
{ "type": "Feature", "properties": { "X": -122.3214888, "Y": 47.54420776, "OBJECTID": 1225, "FEATURE_ID": 351342, "ESITE": 0, "CODE": 350, "NAME": "Carleton Grocery", "ADDRESS": "6601 CARLETON AVE S", "ZIPCODE": 98108, "CITY": "Seattle", "SEAT_CAP": "Grocery" }, "geometry": { "type": "Point", "coordinates": [ -122.3214888, 47.54420776 ] } },
{ "type": "Feature", "properties": { "X": -122.3412286, "Y": 47.72462014, "OBJECTID": 2314, "FEATURE_ID": 351373, "ESITE": 0, "CODE": 350, "NAME": "Cash & Carry #549", "ADDRESS": "13102 STONE AVE N", "ZIPCODE": 98133, "CITY": "Seattle", "SEAT_CAP": "Grocery" }, "geometry": { "type": "Point", "coordinates": [ -122.3412286, 47.72462014 ] } },
{ "type": "Feature", "properties": { "X": -122.3279296, "Y": 47.58669532, "OBJECTID": 1251, "FEATURE_ID": 351374, "ESITE": 0, "CODE": 350, "NAME": "Cash & Carry #551", "ADDRESS": "1760 4TH AVE S", "ZIPCODE": 98134, "CITY": "Seattle", "SEAT_CAP": "Grocery" }, "geometry": { "type": "Point", "coordinates": [ -122.3279296, 47.58669532 ] } },
{ "type": "Feature", "properties": { "X": -122.3058249, "Y": 47.58605134, "OBJECTID": 1254, "FEATURE_ID": 351377, "ESITE": 0, "CODE": 350, "NAME": "Cash & Carry #583", "ADDRESS": "1901 21ST AVE S", "ZIPCODE": 98144, "CITY": "Seattle", "SEAT_CAP": "Grocery" }, "geometry": { "type": "Point", "coordinates": [ -122.3058249, 47.58605134 ] } },
{ "type": "Feature", "properties": { "X": -122.2492718, "Y": 47.45678168, "OBJECTID": 2104, "FEATURE_ID": 351378, "ESITE": 0, "CODE": 350, "NAME": "Cash & Carry Commissary #561", "ADDRESS": "230 ANDOVER PARK E", "ZIPCODE": 98188, "CITY": "Seattle", "SEAT_CAP": "Grocery" }, "geometry": { "type": "Point", "coordinates": [ -122.2492718, 47.45678168 ] } },
{ "type": "Feature", "properties": { "X": -122.311008, "Y": 47.61549341, "OBJECTID": 1300, "FEATURE_ID": 351438, "ESITE": 0, "CODE": 350, "NAME": "Central Co-Op", "ADDRESS": "1600 E MADISON ST", "ZIPCODE": 98122, "CITY": "Seattle", "SEAT_CAP": "Grocery" }, "geometry": { "type": "Point", "coordinates": [ -122.311008, 47.61549341 ] } },
{ "type": "Feature", "properties": { "X": -122.3730184, "Y": 47.66276676, "OBJECTID": 1521, "FEATURE_ID": 351746, "ESITE": 0, "CODE": 350, "NAME": "Commissary Cash & Carry #562", "ADDRESS": "1155 NW BALLARD WAY", "ZIPCODE": 98107, "CITY": "Seattle", "SEAT_CAP": "Grocery" }, "geometry": { "type": "Point", "coordinates": [ -122.3730184, 47.66276676 ] } },
{ "type": "Feature", "properties": { "X": -122.3830904, "Y": 47.64525663, "OBJECTID": 1557, "FEATURE_ID": 351786, "ESITE": 0, "CODE": 350, "NAME": "Corner Store", "ADDRESS": "2809 THORNDYKE AVE W", "ZIPCODE": 98199, "CITY": "Seattle", "SEAT_CAP": "Grocery" }, "geometry": { "type": "Point", "coordinates": [ -122.3830904, 47.64525663 ] } },
{ "type": "Feature", "properties": { "X": -122.330274, "Y": 47.56316539, "OBJECTID": 1584, "FEATURE_ID": 351817, "ESITE": 0, "CODE": 350, "NAME": "Costco Wholesale", "ADDRESS": "4401 4TH AVE S", "ZIPCODE": 98134, "CITY": "Seattle", "SEAT_CAP": "Grocery" }, "geometry": { "type": "Point", "coordinates": [ -122.330274, 47.56316539 ] } },
{ "type": "Feature", "properties": { "X": -122.3470502, "Y": 47.53274218, "OBJECTID": 1605, "FEATURE_ID": 351838, "ESITE": 0, "CODE": 350, "NAME": "Country Deli Grocery", "ADDRESS": "7789 HIGHLAND PARK WAY SW", "ZIPCODE": 98106, "CITY": "Seattle", "SEAT_CAP": "Grocery" }, "geometry": { "type": "Point", "coordinates": [ -122.3470502, 47.53274218 ] } },
{ "type": "Feature", "properties": { "X": -122.376038, "Y": 47.69281731, "OBJECTID": 1663, "FEATURE_ID": 351901, "ESITE": 0, "CODE": 350, "NAME": "Crown Hill Grocery Outlet", "ADDRESS": "8700 15TH AVE NW", "ZIPCODE": 98117, "CITY": "Seattle", "SEAT_CAP": "Grocery" }, "geometry": { "type": "Point", "coordinates": [ -122.376038, 47.69281731 ] } },
{ "type": "Feature", "properties": { "X": -122.3560055, "Y": 47.7055626, "OBJECTID": 410, "FEATURE_ID": 351967, "ESITE": 0, "CODE": 350, "NAME": "Dan'S Deli Mart", "ADDRESS": "10513 GREENWOOD AVE N", "ZIPCODE": 98133, "CITY": "Seattle", "SEAT_CAP": "Grocery" }, "geometry": { "type": "Point", "coordinates": [ -122.3560055, 47.7055626 ] } },
{ "type": "Feature", "properties": { "X": -122.3632877, "Y": 47.55386524, "OBJECTID": 1737, "FEATURE_ID": 352019, "ESITE": 0, "CODE": 350, "NAME": "Delridge Food Mart", "ADDRESS": "5235 DELRIDGE WAY SW", "ZIPCODE": 98106, "CITY": "Seattle", "SEAT_CAP": "Grocery" }, "geometry": { "type": "Point", "coordinates": [ -122.3632877, 47.55386524 ] } },
{ "type": "Feature", "properties": { "X": -122.3153689, "Y": 47.51674085, "OBJECTID": 1835, "FEATURE_ID": 352134, "ESITE": 0, "CODE": 350, "NAME": "Dominic's Red Apple Market", "ADDRESS": "9627 DES MOINES MEMORIAL DR S", "ZIPCODE": 98108, "CITY": "Seattle", "SEAT_CAP": "Grocery" }, "geometry": { "type": "Point", "coordinates": [ -122.3153689, 47.51674085 ] } },
{ "type": "Feature", "properties": { "X": -122.3359373, "Y": 47.65581858, "OBJECTID": 1897, "FEATURE_ID": 352209, "ESITE": 0, "CODE": 350, "NAME": "Durn Good Grocery", "ADDRESS": "4002 WALLINGFORD AVE N", "ZIPCODE": 98103, "CITY": "Seattle", "SEAT_CAP": "Grocery" }, "geometry": { "type": "Point", "coordinates": [ -122.3359373, 47.65581858 ] } },
{ "type": "Feature", "properties": { "X": -122.3075919, "Y": 47.60184046, "OBJECTID": 1920, "FEATURE_ID": 352235, "ESITE": 0, "CODE": 350, "NAME": "East Yesler Grocery", "ADDRESS": "1902 YESLER WAY", "ZIPCODE": 98122, "CITY": "Seattle", "SEAT_CAP": "Grocery" }, "geometry": { "type": "Point", "coordinates": [ -122.3075919, 47.60184046 ] } },
{ "type": "Feature", "properties": { "X": -122.321196, "Y": 47.623308, "OBJECTID": 2154, "FEATURE_ID": 352261, "ESITE": 0, "CODE": 350, "NAME": "Eat Local", "ADDRESS": "503 BROADWAY AVE E", "ZIPCODE": 98102, "CITY": "Seattle", "SEAT_CAP": "Grocery" }, "geometry": { "type": "Point", "coordinates": [ -122.321196, 47.623308 ] } },
{ "type": "Feature", "properties": { "X": -122.3213276, "Y": 47.60766616, "OBJECTID": null, "FEATURE_ID": null, "ESITE": null, "CODE": null, "NAME": "Viet-Wah Asian Food Market", "ADDRESS": "1032 S Jackson St", "ZIPCODE": null, "CITY": "Seattle", "SEAT_CAP": "Grocery" }, "geometry": { "type": "Point", "coordinates": [ -122.3213276, 47.60766616 ] } },
{ "type": "Feature", "properties": { "X": -122.3981875, "Y": 47.6424375, "OBJECTID": null, "FEATURE_ID": null, "ESITE": null, "CODE": null, "NAME": "Albertson's", "ADDRESS": "2550 32nd Ave W", "ZIPCODE": null, "CITY": "Seattle", "SEAT_CAP": "Grocery store" }, "geometry": { "type": "Point", "coordinates": [ -122.3981875, 47.6424375 ] } },
{ "type": "Feature", "properties": { "X": -122.3363125, "Y": 47.6095625, "OBJECTID": null, "FEATURE_ID": null, "ESITE": null, "CODE": null, "NAME": "Amazon Go", "ADDRESS": "1523 4th Ave", "ZIPCODE": null, "CITY": "Seattle", "SEAT_CAP": "Grocery store" }, "geometry": { "type": "Point", "coordinates": [ -122.3363125, 47.6095625 ] } },
{ "type": "Feature", "properties": { "X": -122.3240625, "Y": 47.6143125, "OBJECTID": null, "FEATURE_ID": null, "ESITE": null, "CODE": null, "NAME": "Amazon Go Grocery Store", "ADDRESS": "610 E Pike St", "ZIPCODE": null, "CITY": "Seattle", "SEAT_CAP": "Grocery store" }, "geometry": { "type": "Point", "coordinates": [ -122.3240625, 47.6143125 ] } },
{ "type": "Feature", "properties": { "X": -122.2809375, "Y": 47.5379375, "OBJECTID": null, "FEATURE_ID": null, "ESITE": null, "CODE": null, "NAME": "Amin International Grocery Fashion", "ADDRESS": "7128 Martin Luther King Jr Way S", "ZIPCODE": null, "CITY": "Seattle", "SEAT_CAP": "Grocery store" }, "geometry": { "type": "Point", "coordinates": [ -122.2809375, 47.5379375 ] } },
{ "type": "Feature", "properties": { "X": -122.3165625, "Y": 47.6056875, "OBJECTID": null, "FEATURE_ID": null, "ESITE": null, "CODE": null, "NAME": "Arada Center Market", "ADDRESS": "452 12th Ave", "ZIPCODE": null, "CITY": "Seattle", "SEAT_CAP": "Grocery store" }, "geometry": { "type": "Point", "coordinates": [ -122.3165625, 47.6056875 ] } },
{ "type": "Feature", "properties": { "X": -122.2704375, "Y": 47.5338125, "OBJECTID": null, "FEATURE_ID": null, "ESITE": null, "CODE": null, "NAME": "Balageru International Mart", "ADDRESS": "7631 Rainier Ave S", "ZIPCODE": null, "CITY": "Seattle", "SEAT_CAP": "Grocery store" }, "geometry": { "type": "Point", "coordinates": [ -122.2704375, 47.5338125 ] } },
{ "type": "Feature", "properties": { "X": -122.2839375, "Y": 47.5560625, "OBJECTID": null, "FEATURE_ID": null, "ESITE": null, "CODE": null, "NAME": "Carmelitas Mexican Store", "ADDRESS": "5041 Rainier Ave S", "ZIPCODE": null, "CITY": "Seattle", "SEAT_CAP": "Grocery store" }, "geometry": { "type": "Point", "coordinates": [ -122.2839375, 47.5560625 ] } },
{ "type": "Feature", "properties": { "X": -122.3264375, "Y": 47.6170625, "OBJECTID": null, "FEATURE_ID": null, "ESITE": null, "CODE": null, "NAME": "City Market", "ADDRESS": "1722 Bellevue Ave E", "ZIPCODE": null, "CITY": "Seattle", "SEAT_CAP": "Grocery store" }, "geometry": { "type": "Point", "coordinates": [ -122.3264375, 47.6170625 ] } },
{ "type": "Feature", "properties": { "X": -122.3099375, "Y": 47.4963125, "OBJECTID": null, "FEATURE_ID": null, "ESITE": null, "CODE": null, "NAME": "Del Rio Food Processing Corporation", "ADDRESS": "11852 Des Moines Memorial Dr", "ZIPCODE": null, "CITY": "Seattle", "SEAT_CAP": "Grocery store" }, "geometry": { "type": "Point", "coordinates": [ -122.3099375, 47.4963125 ] } },
{ "type": "Feature", "properties": { "X": -122.3626875, "Y": 47.5525625, "OBJECTID": null, "FEATURE_ID": null, "ESITE": null, "CODE": null, "NAME": "Delridge Grocery Cooperative", "ADDRESS": "5444 Delridge Way SW Suite 100", "ZIPCODE": null, "CITY": "Seattle", "SEAT_CAP": "Grocery store" }, "geometry": { "type": "Point", "coordinates": [ -122.3626875, 47.5525625 ] } },
{ "type": "Feature", "properties": { "X": -122.2819375, "Y": 47.5379375, "OBJECTID": null, "FEATURE_ID": null, "ESITE": null, "CODE": null, "NAME": "East African Grocery", "ADDRESS": "7135 Martin Luther King Jr Way S", "ZIPCODE": null, "CITY": "Seattle", "SEAT_CAP": "Grocery store" }, "geometry": { "type": "Point", "coordinates": [ -122.2819375, 47.5379375 ] } },
{ "type": "Feature", "properties": { "X": -122.2695625, "Y": 47.5270625, "OBJECTID": null, "FEATURE_ID": null, "ESITE": null, "CODE": null, "NAME": "Ethio Mini-Market", "ADDRESS": "8432 Rainier Ave S", "ZIPCODE": null, "CITY": "Seattle", "SEAT_CAP": "Grocery store" }, "geometry": { "type": "Point", "coordinates": [ -122.2695625, 47.5270625 ] } },
{ "type": "Feature", "properties": { "X": -122.2210625, "Y": 47.4994375, "OBJECTID": null, "FEATURE_ID": null, "ESITE": null, "CODE": null, "NAME": "FELEG FOOD MART", "ADDRESS": "11463 Rainier Ave S #B", "ZIPCODE": null, "CITY": "Seattle", "SEAT_CAP": "Grocery store" }, "geometry": { "type": "Point", "coordinates": [ -122.2210625, 47.4994375 ] } },
{ "type": "Feature", "properties": { "X": -122.3556875, "Y": 47.5074375, "OBJECTID": null, "FEATURE_ID": null, "ESITE": null, "CODE": null, "NAME": "Food Mart", "ADDRESS": "10641 16th Ave SW", "ZIPCODE": null, "CITY": "Seattle", "SEAT_CAP": "Grocery store" }, "geometry": { "type": "Point", "coordinates": [ -122.3556875, 47.5074375 ] } },
{ "type": "Feature", "properties": { "X": -122.3588125, "Y": 47.6918125, "OBJECTID": null, "FEATURE_ID": null, "ESITE": null, "CODE": null, "NAME": "Fred Meyer", "ADDRESS": "100 NW 85th St", "ZIPCODE": null, "CITY": "Seattle", "SEAT_CAP": "Grocery store" }, "geometry": { "type": "Point", "coordinates": [ -122.3588125, 47.6918125 ] } },
{ "type": "Feature", "properties": { "X": -122.2920625, "Y": 47.7240625, "OBJECTID": null, "FEATURE_ID": null, "ESITE": null, "CODE": null, "NAME": "Fred Meyer", "ADDRESS": "13000 Lake City Way NE", "ZIPCODE": null, "CITY": "Seattle", "SEAT_CAP": "Grocery store" }, "geometry": { "type": "Point", "coordinates": [ -122.2920625, 47.7240625 ] } },
{ "type": "Feature", "properties": { "X": -122.3686875, "Y": 47.6598125, "OBJECTID": null, "FEATURE_ID": null, "ESITE": null, "CODE": null, "NAME": "Fred Meyer", "ADDRESS": "915 NW 45th St", "ZIPCODE": null, "CITY": "Seattle", "SEAT_CAP": "Grocery store" }, "geometry": { "type": "Point", "coordinates": [ -122.3686875, 47.6598125 ] } },
{ "type": "Feature", "properties": { "X": -122.2958125, "Y": 47.6124375, "OBJECTID": null, "FEATURE_ID": null, "ESITE": null, "CODE": null, "NAME": "Grocery Outlet", "ADDRESS": "1126 Martin Luther King Jr Way", "ZIPCODE": null, "CITY": "Seattle", "SEAT_CAP": "Grocery store" }, "geometry": { "type": "Point", "coordinates": [ -122.2958125, 47.6124375 ] } },
{ "type": "Feature", "properties": { "X": -122.2483125, "Y": 47.4964375, "OBJECTID": null, "FEATURE_ID": null, "ESITE": null, "CODE": null, "NAME": "Grocery Outlet", "ADDRESS": "11656 68th Ave S", "ZIPCODE": null, "CITY": "Seattle", "SEAT_CAP": "Grocery store" }, "geometry": { "type": "Point", "coordinates": [ -122.2483125, 47.4964375 ] } },
{ "type": "Feature", "properties": { "X": -122.2776875, "Y": 47.5505625, "OBJECTID": null, "FEATURE_ID": null, "ESITE": null, "CODE": null, "NAME": "Harameyn Halal Grocery", "ADDRESS": "4272 S Mead St", "ZIPCODE": null, "CITY": "Seattle", "SEAT_CAP": "Grocery store" }, "geometry": { "type": "Point", "coordinates": [ -122.2776875, 47.5505625 ] } },
{ "type": "Feature", "properties": { "X": -122.2700625, "Y": 47.5558125, "OBJECTID": null, "FEATURE_ID": null, "ESITE": null, "CODE": null, "NAME": "Inorex Inc", "ADDRESS": "5044 Wilson Ave S", "ZIPCODE": null, "CITY": "Seattle", "SEAT_CAP": "Grocery store" }, "geometry": { "type": "Point", "coordinates": [ -122.2700625, 47.5558125 ] } },
{ "type": "Feature", "properties": { "X": -122.3304375, "Y": 47.5106875, "OBJECTID": null, "FEATURE_ID": null, "ESITE": null, "CODE": null, "NAME": "J & B African Market", "ADDRESS": "10327 3rd Ave S", "ZIPCODE": null, "CITY": "Seattle", "SEAT_CAP": "Grocery store" }, "geometry": { "type": "Point", "coordinates": [ -122.3304375, 47.5106875 ] } },
{ "type": "Feature", "properties": { "X": -122.3433125, "Y": 47.6378125, "OBJECTID": null, "FEATURE_ID": null, "ESITE": null, "CODE": null, "NAME": "Lyon's Grocery", "ADDRESS": "2100 Dexter Ave N", "ZIPCODE": null, "CITY": "Seattle", "SEAT_CAP": "Grocery store" }, "geometry": { "type": "Point", "coordinates": [ -122.3433125, 47.6378125 ] } },
{ "type": "Feature", "properties": { "X": -122.3554375, "Y": 47.5226875, "OBJECTID": null, "FEATURE_ID": null, "ESITE": null, "CODE": null, "NAME": "MESOB HABESHA GROCERY", "ADDRESS": "9001 16th Ave SW", "ZIPCODE": null, "CITY": "Seattle", "SEAT_CAP": "Grocery store" }, "geometry": { "type": "Point", "coordinates": [ -122.3554375, 47.5226875 ] } },
{ "type": "Feature", "properties": { "X": -122.3545625, "Y": 47.6249375, "OBJECTID": null, "FEATURE_ID": null, "ESITE": null, "CODE": null, "NAME": "Metropolitan Market Queen Anne (Uptown)", "ADDRESS": "100 Mercer St", "ZIPCODE": null, "CITY": "Seattle", "SEAT_CAP": "Grocery store" }, "geometry": { "type": "Point", "coordinates": [ -122.3545625, 47.6249375 ] } },
{ "type": "Feature", "properties": { "X": -122.2695625, "Y": 47.5320625, "OBJECTID": null, "FEATURE_ID": null, "ESITE": null, "CODE": null, "NAME": "Mi Ranchito", "ADDRESS": "7820 Rainier Ave S", "ZIPCODE": null, "CITY": "Seattle", "SEAT_CAP": "Grocery store" }, "geometry": { "type": "Point", "coordinates": [ -122.2695625, 47.5320625 ] } },
{ "type": "Feature", "properties": { "X": -122.2698125, "Y": 47.5288125, "OBJECTID": null, "FEATURE_ID": null, "ESITE": null, "CODE": null, "NAME": "Miski Market", "ADDRESS": "8424 Rainier Ave S", "ZIPCODE": null, "CITY": "Seattle", "SEAT_CAP": "Grocery store" }, "geometry": { "type": "Point", "coordinates": [ -122.2698125, 47.5288125 ] } },
{ "type": "Feature", "properties": { "X": -122.2840625, "Y": 47.5420625, "OBJECTID": null, "FEATURE_ID": null, "ESITE": null, "CODE": null, "NAME": "Moga's Market Halal Grocery & Clothing", "ADDRESS": "6715 Martin Luther King Jr Way S", "ZIPCODE": null, "CITY": "Seattle", "SEAT_CAP": "Grocery store" }, "geometry": { "type": "Point", "coordinates": [ -122.2840625, 47.5420625 ] } },
{ "type": "Feature", "properties": { "X": -122.2884375, "Y": 47.5528125, "OBJECTID": null, "FEATURE_ID": null, "ESITE": null, "CODE": null, "NAME": "Nazareth Market", "ADDRESS": "5418 Martin Luther King Jr Way S", "ZIPCODE": null, "CITY": "Seattle", "SEAT_CAP": "Grocery store" }, "geometry": { "type": "Point", "coordinates": [ -122.2884375, 47.5528125 ] } },
{ "type": "Feature", "properties": { "X": -122.3756875, "Y": 47.6618125, "OBJECTID": null, "FEATURE_ID": null, "ESITE": null, "CODE": null, "NAME": "PCC Community Markets - Ballard", "ADDRESS": "1451 NW 46th St", "ZIPCODE": null, "CITY": "Seattle", "SEAT_CAP": "Grocery store" }, "geometry": { "type": "Point", "coordinates": [ -122.3756875, 47.6618125 ] } },
{ "type": "Feature", "properties": { "X": -122.3029375, "Y": 47.6130625, "OBJECTID": null, "FEATURE_ID": null, "ESITE": null, "CODE": null, "NAME": "PCC Community Markets - Central District", "ADDRESS": "2230 E Union St", "ZIPCODE": null, "CITY": "Seattle", "SEAT_CAP": "Grocery store" }, "geometry": { "type": "Point", "coordinates": [ -122.3029375, 47.6130625 ] } },
{ "type": "Feature", "properties": { "X": -122.2868125, "Y": 47.5588125, "OBJECTID": null, "FEATURE_ID": null, "ESITE": null, "CODE": null, "NAME": "PCC Community Markets - Columbia City", "ADDRESS": "3610 S Edmunds St", "ZIPCODE": null, "CITY": "Seattle", "SEAT_CAP": "Grocery store" }, "geometry": { "type": "Point", "coordinates": [ -122.2868125, 47.5588125 ] } },
{ "type": "Feature", "properties": { "X": -122.3289375, "Y": 47.6131875, "OBJECTID": null, "FEATURE_ID": null, "ESITE": null, "CODE": null, "NAME": "Pike Grocery", "ADDRESS": "1011 Pike St", "ZIPCODE": null, "CITY": "Seattle", "SEAT_CAP": "Grocery store" }, "geometry": { "type": "Point", "coordinates": [ -122.3289375, 47.6131875 ] } },
{ "type": "Feature", "properties": { "X": -122.3171875, "Y": 47.7094375, "OBJECTID": null, "FEATURE_ID": null, "ESITE": null, "CODE": null, "NAME": "QFC", "ADDRESS": "11100 Roosevelt Way NE", "ZIPCODE": null, "CITY": "Seattle", "SEAT_CAP": "Grocery store" }, "geometry": { "type": "Point", "coordinates": [ -122.3171875, 47.7094375 ] } },
{ "type": "Feature", "properties": { "X": -122.3778125, "Y": 47.6493125, "OBJECTID": null, "FEATURE_ID": null, "ESITE": null, "CODE": null, "NAME": "QFC", "ADDRESS": "1600 W Dravus St", "ZIPCODE": null, "CITY": "Seattle", "SEAT_CAP": "Grocery store" }, "geometry": { "type": "Point", "coordinates": [ -122.3778125, 47.6493125 ] } },
{ "type": "Feature", "properties": { "X": -122.3361875, "Y": 47.6616875, "OBJECTID": null, "FEATURE_ID": null, "ESITE": null, "CODE": null, "NAME": "QFC", "ADDRESS": "1801 N 45th St", "ZIPCODE": null, "CITY": "Seattle", "SEAT_CAP": "Grocery store" }, "geometry": { "type": "Point", "coordinates": [ -122.3361875, 47.6616875 ] } },
{ "type": "Feature", "properties": { "X": -122.3659375, "Y": 47.5220625, "OBJECTID": null, "FEATURE_ID": null, "ESITE": null, "CODE": null, "NAME": "QFC", "ADDRESS": "2500 SW Barton St", "ZIPCODE": null, "CITY": "Seattle", "SEAT_CAP": "Grocery store" }, "geometry": { "type": "Point", "coordinates": [ -122.3659375, 47.5220625 ] } },
{ "type": "Feature", "properties": { "X": -122.2998125, "Y": 47.5791875, "OBJECTID": null, "FEATURE_ID": null, "ESITE": null, "CODE": null, "NAME": "QFC", "ADDRESS": "2707 Rainier Ave S", "ZIPCODE": null, "CITY": "Seattle", "SEAT_CAP": "Grocery store" }, "geometry": { "type": "Point", "coordinates": [ -122.2998125, 47.5791875 ] } },
{ "type": "Feature", "properties": { "X": -122.2964375, "Y": 47.6624375, "OBJECTID": null, "FEATURE_ID": null, "ESITE": null, "CODE": null, "NAME": "QFC", "ADDRESS": "2746 NE 45th St", "ZIPCODE": null, "CITY": "Seattle", "SEAT_CAP": "Grocery store" }, "geometry": { "type": "Point", "coordinates": [ -122.2964375, 47.6624375 ] } },
{ "type": "Feature", "properties": { "X": -122.3123125, "Y": 47.6226875, "OBJECTID": null, "FEATURE_ID": null, "ESITE": null, "CODE": null, "NAME": "QFC", "ADDRESS": "416 15th Ave E", "ZIPCODE": null, "CITY": "Seattle", "SEAT_CAP": "Grocery store" }, "geometry": { "type": "Point", "coordinates": [ -122.3123125, 47.6226875 ] } },
{ "type": "Feature", "properties": { "X": -122.3851875, "Y": 47.5613125, "OBJECTID": null, "FEATURE_ID": null, "ESITE": null, "CODE": null, "NAME": "QFC", "ADDRESS": "4550 42nd Ave SW", "ZIPCODE": null, "CITY": "Seattle", "SEAT_CAP": "Grocery store" }, "geometry": { "type": "Point", "coordinates": [ -122.3851875, 47.5613125 ] } },
{ "type": "Feature", "properties": { "X": -122.3871875, "Y": 47.6706875, "OBJECTID": null, "FEATURE_ID": null, "ESITE": null, "CODE": null, "NAME": "QFC", "ADDRESS": "5700 24th Ave NW", "ZIPCODE": null, "CITY": "Seattle", "SEAT_CAP": "Grocery store" }, "geometry": { "type": "Point", "coordinates": [ -122.3871875, 47.6706875 ] } },
{ "type": "Feature", "properties": { "X": -122.2694375, "Y": 47.5284375, "OBJECTID": null, "FEATURE_ID": null, "ESITE": null, "CODE": null, "NAME": "Rainier Grocery", "ADDRESS": "8334 Rainier Ave S", "ZIPCODE": null, "CITY": "Seattle", "SEAT_CAP": "Grocery store" }, "geometry": { "type": "Point", "coordinates": [ -122.2694375, 47.5284375 ] } },
{ "type": "Feature", "properties": { "X": -122.3333125, "Y": 47.5053125, "OBJECTID": null, "FEATURE_ID": null, "ESITE": null, "CODE": null, "NAME": "Roba's African Store", "ADDRESS": "10854 Myers Way S", "ZIPCODE": null, "CITY": "Seattle", "SEAT_CAP": "Grocery store" }, "geometry": { "type": "Point", "coordinates": [ -122.3333125, 47.5053125 ] } },
{ "type": "Feature", "properties": { "X": -122.3543125, "Y": 47.5079375, "OBJECTID": null, "FEATURE_ID": null, "ESITE": null, "CODE": null, "NAME": "Saar's Super Saver Foods", "ADDRESS": "10616 16th Ave SW", "ZIPCODE": null, "CITY": "Seattle", "SEAT_CAP": "Grocery store" }, "geometry": { "type": "Point", "coordinates": [ -122.3543125, 47.5079375 ] } },
{ "type": "Feature", "properties": { "X": -122.3120625, "Y": 47.7181875, "OBJECTID": null, "FEATURE_ID": null, "ESITE": null, "CODE": null, "NAME": "Safeway", "ADDRESS": "12318 15th Ave NE", "ZIPCODE": null, "CITY": "Seattle", "SEAT_CAP": "Grocery store" }, "geometry": { "type": "Point", "coordinates": [ -122.3120625, 47.7181875 ] } },
{ "type": "Feature", "properties": { "X": -122.3130625, "Y": 47.6204375, "OBJECTID": null, "FEATURE_ID": null, "ESITE": null, "CODE": null, "NAME": "Safeway", "ADDRESS": "1410 E John St", "ZIPCODE": null, "CITY": "Seattle", "SEAT_CAP": "Grocery store" }, "geometry": { "type": "Point", "coordinates": [ -122.3130625, 47.6204375 ] } },
{ "type": "Feature", "properties": { "X": -122.3749375, "Y": 47.6683125, "OBJECTID": null, "FEATURE_ID": null, "ESITE": null, "CODE": null, "NAME": "Safeway", "ADDRESS": "1423 NW Market St", "ZIPCODE": null, "CITY": "Seattle", "SEAT_CAP": "Grocery store" }, "geometry": { "type": "Point", "coordinates": [ -122.3749375, 47.6683125 ] } },
{ "type": "Feature", "properties": { "X": -122.3560625, "Y": 47.6376875, "OBJECTID": null, "FEATURE_ID": null, "ESITE": null, "CODE": null, "NAME": "Safeway", "ADDRESS": "2100 Queen Anne Ave N", "ZIPCODE": null, "CITY": "Seattle", "SEAT_CAP": "Grocery store" }, "geometry": { "type": "Point", "coordinates": [ -122.3560625, 47.6376875 ] } },
{ "type": "Feature", "properties": { "X": -122.3038125, "Y": 47.6180625, "OBJECTID": null, "FEATURE_ID": null, "ESITE": null, "CODE": null, "NAME": "Safeway", "ADDRESS": "2201 E Madison St", "ZIPCODE": null, "CITY": "Seattle", "SEAT_CAP": "Grocery store" }, "geometry": { "type": "Point", "coordinates": [ -122.3038125, 47.6180625 ] } },
{ "type": "Feature", "properties": { "X": -122.3859375, "Y": 47.5799375, "OBJECTID": null, "FEATURE_ID": null, "ESITE": null, "CODE": null, "NAME": "Safeway", "ADDRESS": "2622 California Ave SW", "ZIPCODE": null, "CITY": "Seattle", "SEAT_CAP": "Grocery store" }, "geometry": { "type": "Point", "coordinates": [ -122.3859375, 47.5799375 ] } },
{ "type": "Feature", "properties": { "X": -122.2949375, "Y": 47.6619375, "OBJECTID": null, "FEATURE_ID": null, "ESITE": null, "CODE": null, "NAME": "Safeway", "ADDRESS": "3020 NE 45th St", "ZIPCODE": null, "CITY": "Seattle", "SEAT_CAP": "Grocery store" }, "geometry": { "type": "Point", "coordinates": [ -122.2949375, 47.6619375 ] } },
{ "type": "Feature", "properties": { "X": -122.2881875, "Y": 47.5691875, "OBJECTID": null, "FEATURE_ID": null, "ESITE": null, "CODE": null, "NAME": "Safeway", "ADDRESS": "3820 Rainier Ave S", "ZIPCODE": null, "CITY": "Seattle", "SEAT_CAP": "Grocery store" }, "geometry": { "type": "Point", "coordinates": [ -122.2881875, 47.5691875 ] } },
{ "type": "Feature", "properties": { "X": -122.2830625, "Y": 47.5374375, "OBJECTID": null, "FEATURE_ID": null, "ESITE": null, "CODE": null, "NAME": "Safeway", "ADDRESS": "3900 S Othello St", "ZIPCODE": null, "CITY": "Seattle", "SEAT_CAP": "Grocery store" }, "geometry": { "type": "Point", "coordinates": [ -122.2830625, 47.5374375 ] } },
{ "type": "Feature", "properties": { "X": -122.2824375, "Y": 47.4556875, "OBJECTID": null, "FEATURE_ID": null, "ESITE": null, "CODE": null, "NAME": "Safeway", "ADDRESS": "4011 S 164th St", "ZIPCODE": null, "CITY": "Seattle", "SEAT_CAP": "Grocery store" }, "geometry": { "type": "Point", "coordinates": [ -122.2824375, 47.4556875 ] } },
{ "type": "Feature", "properties": { "X": -122.3851875, "Y": 47.5596875, "OBJECTID": null, "FEATURE_ID": null, "ESITE": null, "CODE": null, "NAME": "Safeway", "ADDRESS": "4754 42nd Ave SW", "ZIPCODE": null, "CITY": "Seattle", "SEAT_CAP": "Grocery store" }, "geometry": { "type": "Point", "coordinates": [ -122.3851875, 47.5596875 ] } },
{ "type": "Feature", "properties": { "X": -122.3576875, "Y": 47.6235625, "OBJECTID": null, "FEATURE_ID": null, "ESITE": null, "CODE": null, "NAME": "Safeway", "ADDRESS": "516 1st Ave W", "ZIPCODE": null, "CITY": "Seattle", "SEAT_CAP": "Grocery store" }, "geometry": { "type": "Point", "coordinates": [ -122.3576875, 47.6235625 ] } },
{ "type": "Feature", "properties": { "X": -122.3170625, "Y": 47.6819375, "OBJECTID": null, "FEATURE_ID": null, "ESITE": null, "CODE": null, "NAME": "Safeway", "ADDRESS": "7300 Roosevelt Way NE", "ZIPCODE": null, "CITY": "Seattle", "SEAT_CAP": "Grocery store" }, "geometry": { "type": "Point", "coordinates": [ -122.3170625, 47.6819375 ] } },
{ "type": "Feature", "properties": { "X": -122.2894375, "Y": 47.6825625, "OBJECTID": null, "FEATURE_ID": null, "ESITE": null, "CODE": null, "NAME": "Safeway", "ADDRESS": "7340 35th Ave NE", "ZIPCODE": null, "CITY": "Seattle", "SEAT_CAP": "Grocery store" }, "geometry": { "type": "Point", "coordinates": [ -122.2894375, 47.6825625 ] } },
{ "type": "Feature", "properties": { "X": -122.3760625, "Y": 47.6898125, "OBJECTID": null, "FEATURE_ID": null, "ESITE": null, "CODE": null, "NAME": "Safeway", "ADDRESS": "8340 15th Ave NW", "ZIPCODE": null, "CITY": "Seattle", "SEAT_CAP": "Grocery store" }, "geometry": { "type": "Point", "coordinates": [ -122.3760625, 47.6898125 ] } },
{ "type": "Feature", "properties": { "X": -122.2680625, "Y": 47.5209375, "OBJECTID": null, "FEATURE_ID": null, "ESITE": null, "CODE": null, "NAME": "Safeway", "ADDRESS": "9262 Rainier Ave S", "ZIPCODE": null, "CITY": "Seattle", "SEAT_CAP": "Grocery store" }, "geometry": { "type": "Point", "coordinates": [ -122.2680625, 47.5209375 ] } },
{ "type": "Feature", "properties": { "X": -122.3666875, "Y": 47.5166875, "OBJECTID": null, "FEATURE_ID": null, "ESITE": null, "CODE": null, "NAME": "Safeway", "ADDRESS": "9620 28th Ave SW", "ZIPCODE": null, "CITY": "Seattle", "SEAT_CAP": "Grocery store" }, "geometry": { "type": "Point", "coordinates": [ -122.3666875, 47.5166875 ] } },
{ "type": "Feature", "properties": { "X": -122.2698125, "Y": 47.5284375, "OBJECTID": null, "FEATURE_ID": null, "ESITE": null, "CODE": null, "NAME": "Sharif Grocery & Halal", "ADDRESS": "8334 Rainier Ave S #101", "ZIPCODE": null, "CITY": "Seattle", "SEAT_CAP": "Grocery store" }, "geometry": { "type": "Point", "coordinates": [ -122.2698125, 47.5284375 ] } },
{ "type": "Feature", "properties": { "X": -122.3661875, "Y": 47.5084375, "OBJECTID": null, "FEATURE_ID": null, "ESITE": null, "CODE": null, "NAME": "Shorewood Grocery", "ADDRESS": "10455 26th Ave SW", "ZIPCODE": null, "CITY": "Seattle", "SEAT_CAP": "Grocery store" }, "geometry": { "type": "Point", "coordinates": [ -122.3661875, 47.5084375 ] } },
{ "type": "Feature", "properties": { "X": -122.3151875, "Y": 47.5235625, "OBJECTID": null, "FEATURE_ID": null, "ESITE": null, "CODE": null, "NAME": "South Park Food Center", "ADDRESS": "8909 14th Ave S", "ZIPCODE": null, "CITY": "Seattle", "SEAT_CAP": "Grocery store" }, "geometry": { "type": "Point", "coordinates": [ -122.3151875, 47.5235625 ] } },
{ "type": "Feature", "properties": { "X": -122.3244375, "Y": 47.6055625, "OBJECTID": null, "FEATURE_ID": null, "ESITE": null, "CODE": null, "NAME": "Stockbox First Hill Grocery", "ADDRESS": "901 James St", "ZIPCODE": null, "CITY": "Seattle", "SEAT_CAP": "Grocery store" }, "geometry": { "type": "Point", "coordinates": [ -122.3244375, 47.6055625 ] } },
{ "type": "Feature", "properties": { "X": -122.3560625, "Y": 47.5186875, "OBJECTID": null, "FEATURE_ID": null, "ESITE": null, "CODE": null, "NAME": "The People's Choice Marketplace", "ADDRESS": "9416 Delridge Way SW", "ZIPCODE": null, "CITY": "Seattle", "SEAT_CAP": "Grocery store" }, "geometry": { "type": "Point", "coordinates": [ -122.3560625, 47.5186875 ] } },
{ "type": "Feature", "properties": { "X": -122.3096875, "Y": 47.6160625, "OBJECTID": null, "FEATURE_ID": null, "ESITE": null, "CODE": null, "NAME": "Trader Joe's", "ADDRESS": "1700 E Madison St", "ZIPCODE": null, "CITY": "Seattle", "SEAT_CAP": "Grocery store" }, "geometry": { "type": "Point", "coordinates": [ -122.3096875, 47.6160625 ] } },
{ "type": "Feature", "properties": { "X": -122.3810625, "Y": 47.5619375, "OBJECTID": null, "FEATURE_ID": null, "ESITE": null, "CODE": null, "NAME": "Trader Joe's", "ADDRESS": "4545 Fauntleroy Way SW", "ZIPCODE": null, "CITY": "Seattle", "SEAT_CAP": "Grocery store" }, "geometry": { "type": "Point", "coordinates": [ -122.3810625, 47.5619375 ] } },
{ "type": "Feature", "properties": { "X": -122.2831875, "Y": 47.5391875, "OBJECTID": null, "FEATURE_ID": null, "ESITE": null, "CODE": null, "NAME": "Trung Tam Vinh Cuu Quoc Te", "ADDRESS": "6951 Martin Luther King Jr Way S Ste 207", "ZIPCODE": null, "CITY": "Seattle", "SEAT_CAP": "Grocery store" }, "geometry": { "type": "Point", "coordinates": [ -122.2831875, 47.5391875 ] } },
{ "type": "Feature", "properties": { "X": -122.2701875, "Y": 47.5294375, "OBJECTID": null, "FEATURE_ID": null, "ESITE": null, "CODE": null, "NAME": "Union Store", "ADDRESS": "8131 Rainier Ave S", "ZIPCODE": null, "CITY": "Seattle", "SEAT_CAP": "Grocery store" }, "geometry": { "type": "Point", "coordinates": [ -122.2701875, 47.5294375 ] } },
{ "type": "Feature", "properties": { "X": -122.3554375, "Y": 47.5189375, "OBJECTID": null, "FEATURE_ID": null, "ESITE": null, "CODE": null, "NAME": "West Seattle Halal Market", "ADDRESS": "9405 16th Ave SW", "ZIPCODE": null, "CITY": "Seattle", "SEAT_CAP": "Grocery store" }, "geometry": { "type": "Point", "coordinates": [ -122.3554375, 47.5189375 ] } },
{ "type": "Feature", "properties": { "X": -122.3820625, "Y": 47.5600625, "OBJECTID": null, "FEATURE_ID": null, "ESITE": null, "CODE": null, "NAME": "Whole Foods Market", "ADDRESS": "4755 Fauntleroy Way SW Ste 190", "ZIPCODE": null, "CITY": "Seattle", "SEAT_CAP": "Grocery store" }, "geometry": { "type": "Point", "coordinates": [ -122.3820625, 47.5600625 ] } },
{ "type": "Feature", "properties": { "X": -122.3234375, "Y": 47.5981875, "OBJECTID": null, "FEATURE_ID": null, "ESITE": null, "CODE": null, "NAME": "Bao An Tang Herb & Grocery Store", "ADDRESS": "705 S King St", "ZIPCODE": null, "CITY": "Seattle", "SEAT_CAP": "Herbal medicine store" }, "geometry": { "type": "Point", "coordinates": [ -122.3234375, 47.5981875 ] } },
{ "type": "Feature", "properties": { "X": -122.3188125, "Y": 47.5479375, "OBJECTID": null, "FEATURE_ID": null, "ESITE": null, "CODE": null, "NAME": "Maruta Shoten", "ADDRESS": "1024 S Bailey St", "ZIPCODE": null, "CITY": "Seattle", "SEAT_CAP": "Japanese grocery store" }, "geometry": { "type": "Point", "coordinates": [ -122.3188125, 47.5479375 ] } },
{ "type": "Feature", "properties": { "X": -122.3130625, "Y": 47.6589375, "OBJECTID": null, "FEATURE_ID": null, "ESITE": null, "CODE": null, "NAME": "H Mart UW", "ADDRESS": "4216 University Way NE", "ZIPCODE": null, "CITY": "Seattle", "SEAT_CAP": "Korean grocery store" }, "geometry": { "type": "Point", "coordinates": [ -122.3130625, 47.6589375 ] } },
{ "type": "Feature", "properties": { "X": -122.3554375, "Y": 47.5169375, "OBJECTID": null, "FEATURE_ID": null, "ESITE": null, "CODE": null, "NAME": "La Tpica Oaxaquea", "ADDRESS": "9613 16th Ave SW", "ZIPCODE": null, "CITY": "Seattle", "SEAT_CAP": "Mexican grocery store" }, "geometry": { "type": "Point", "coordinates": [ -122.3554375, 47.5169375 ] } },
{ "type": "Feature", "properties": { "X": -122.3235625, "Y": 47.5026875, "OBJECTID": null, "FEATURE_ID": null, "ESITE": null, "CODE": null, "NAME": "Duane's Garden Patch", "ADDRESS": "11215 8th Ave S", "ZIPCODE": null, "CITY": "Seattle", "SEAT_CAP": "Produce market" }, "geometry": { "type": "Point", "coordinates": [ -122.3235625, 47.5026875 ] } },
{ "type": "Feature", "properties": { "X": -122.3466875, "Y": 47.4813125, "OBJECTID": null, "FEATURE_ID": null, "ESITE": null, "CODE": null, "NAME": "Freggies", "ADDRESS": "850 SW 136th St", "ZIPCODE": null, "CITY": "Seattle", "SEAT_CAP": "Produce market" }, "geometry": { "type": "Point", "coordinates": [ -122.3466875, 47.4813125 ] } },
{ "type": "Feature", "properties": { "X": -122.3544375, "Y": 47.5153125, "OBJECTID": null, "FEATURE_ID": null, "ESITE": null, "CODE": null, "NAME": "Samway", "ADDRESS": "9811 15th Ave SW", "ZIPCODE": null, "CITY": "Seattle", "SEAT_CAP": "Produce market" }, "geometry": { "type": "Point", "coordinates": [ -122.3544375, 47.5153125 ] } },
{ "type": "Feature", "properties": { "X": -122.2794375, "Y": 47.5235625, "OBJECTID": null, "FEATURE_ID": null, "ESITE": null, "CODE": null, "NAME": "Vegetable Bin", "ADDRESS": "8825 Martin Luther King Jr Way S", "ZIPCODE": null, "CITY": "Seattle", "SEAT_CAP": "Produce market" }, "geometry": { "type": "Point", "coordinates": [ -122.2794375, 47.5235625 ] } },
{ "type": "Feature", "properties": { "X": -122.2831875, "Y": 47.5390625, "OBJECTID": null, "FEATURE_ID": null, "ESITE": null, "CODE": null, "NAME": "Ba Mien Seafood Market", "ADDRESS": "6951 Martin Luther King Jr Way S", "ZIPCODE": null, "CITY": "Seattle", "SEAT_CAP": "Seafood market" }, "geometry": { "type": "Point", "coordinates": [ -122.2831875, 47.5390625 ] } },
{ "type": "Feature", "properties": { "X": -122.3549375, "Y": 47.5091875, "OBJECTID": null, "FEATURE_ID": null, "ESITE": null, "CODE": null, "NAME": "Castillos Supermarkets", "ADDRESS": "10426 16th Ave SW", "ZIPCODE": null, "CITY": "Seattle", "SEAT_CAP": "Supermarket" }, "geometry": { "type": "Point", "coordinates": [ -122.3549375, 47.5091875 ] } },
{ "type": "Feature", "properties": { "X": -122.3444418, "Y": 47.77479583, "OBJECTID": 1591, "FEATURE_ID": 351824, "ESITE": 0, "CODE": 350, "NAME": "Costco Wholesale #106", "ADDRESS": "1175 N 205TH ST", "ZIPCODE": 98133, "CITY": "Shoreline", "SEAT_CAP": "Grocery" }, "geometry": { "type": "Point", "coordinates": [ -122.3444418, 47.77479583 ] } },
{ "type": "Feature", "properties": { "X": -122.3476875, "Y": 47.7620625, "OBJECTID": null, "FEATURE_ID": null, "ESITE": null, "CODE": null, "NAME": "Fred Meyer", "ADDRESS": "18325 Aurora Ave N", "ZIPCODE": null, "CITY": "Shoreline", "SEAT_CAP": "Grocery store" }, "geometry": { "type": "Point", "coordinates": [ -122.3476875, 47.7620625 ] } },
{ "type": "Feature", "properties": { "X": -122.3641875, "Y": 47.7659375, "OBJECTID": null, "FEATURE_ID": null, "ESITE": null, "CODE": null, "NAME": "QFC", "ADDRESS": "600 NW Richmond Beach Rd", "ZIPCODE": null, "CITY": "Shoreline", "SEAT_CAP": "Grocery store" }, "geometry": { "type": "Point", "coordinates": [ -122.3641875, 47.7659375 ] } },
{ "type": "Feature", "properties": { "X": -122.3435625, "Y": 47.7409375, "OBJECTID": null, "FEATURE_ID": null, "ESITE": null, "CODE": null, "NAME": "Safeway", "ADDRESS": "15332 Aurora Ave N", "ZIPCODE": null, "CITY": "Shoreline", "SEAT_CAP": "Grocery store" }, "geometry": { "type": "Point", "coordinates": [ -122.3435625, 47.7409375 ] } },
{ "type": "Feature", "properties": { "X": -122.3129375, "Y": 47.7543125, "OBJECTID": null, "FEATURE_ID": null, "ESITE": null, "CODE": null, "NAME": "Safeway", "ADDRESS": "17202 15th Ave NE", "ZIPCODE": null, "CITY": "Shoreline", "SEAT_CAP": "Grocery store" }, "geometry": { "type": "Point", "coordinates": [ -122.3129375, 47.7543125 ] } },
{ "type": "Feature", "properties": { "X": -122.3433125, "Y": 47.7549375, "OBJECTID": null, "FEATURE_ID": null, "ESITE": null, "CODE": null, "NAME": "Trader Joe's", "ADDRESS": "1201 N 175th St", "ZIPCODE": null, "CITY": "Shoreline", "SEAT_CAP": "Grocery store" }, "geometry": { "type": "Point", "coordinates": [ -122.3433125, 47.7549375 ] } },
{ "type": "Feature", "properties": { "X": -122.2600625, "Y": 47.4484375, "OBJECTID": null, "FEATURE_ID": null, "ESITE": null, "CODE": null, "NAME": "Lam's Seafood Asian Market", "ADDRESS": "243 Minkler Blvd", "ZIPCODE": null, "CITY": "Tukwila", "SEAT_CAP": "Asian grocery store" }, "geometry": { "type": "Point", "coordinates": [ -122.2600625, 47.4484375 ] } },
{ "type": "Feature", "properties": { "X": -122.2588125, "Y": 47.4553125, "OBJECTID": null, "FEATURE_ID": null, "ESITE": null, "CODE": null, "NAME": "Target", "ADDRESS": "301 Strander Blvd", "ZIPCODE": null, "CITY": "Tukwila", "SEAT_CAP": "Department store" }, "geometry": { "type": "Point", "coordinates": [ -122.2588125, 47.4553125 ] } },
{ "type": "Feature", "properties": { "X": -122.2483379, "Y": 47.4455973, "OBJECTID": 1587, "FEATURE_ID": 351820, "ESITE": 0, "CODE": 350, "NAME": "Costco Wholesale #006 Grocery", "ADDRESS": "400 COSTCO DR", "ZIPCODE": 98188, "CITY": "Tukwila", "SEAT_CAP": "Grocery" }, "geometry": { "type": "Point", "coordinates": [ -122.2483379, 47.4455973 ] } },
{ "type": "Feature", "properties": { "X": -122.2841875, "Y": 47.4766875, "OBJECTID": null, "FEATURE_ID": null, "ESITE": null, "CODE": null, "NAME": "Ma Sha Allah Grocery Store", "ADDRESS": "14121 Tukwila International Blvd", "ZIPCODE": null, "CITY": "Tukwila", "SEAT_CAP": "Grocery store" }, "geometry": { "type": "Point", "coordinates": [ -122.2841875, 47.4766875 ] } },
{ "type": "Feature", "properties": { "X": -122.2899375, "Y": 47.4736875, "OBJECTID": null, "FEATURE_ID": null, "ESITE": null, "CODE": null, "NAME": "Nsnasrulaah", "ADDRESS": "14432 Military Rd S # 405", "ZIPCODE": null, "CITY": "Tukwila", "SEAT_CAP": "Grocery store" }, "geometry": { "type": "Point", "coordinates": [ -122.2899375, 47.4736875 ] } },
{ "type": "Feature", "properties": { "X": -122.2856875, "Y": 47.4730625, "OBJECTID": null, "FEATURE_ID": null, "ESITE": null, "CODE": null, "NAME": "Saar's Super Saver Foods", "ADDRESS": "3725 S 144th St", "ZIPCODE": null, "CITY": "Tukwila", "SEAT_CAP": "Grocery store" }, "geometry": { "type": "Point", "coordinates": [ -122.2856875, 47.4730625 ] } },
{ "type": "Feature", "properties": { "X": -122.2560625, "Y": 47.4598125, "OBJECTID": null, "FEATURE_ID": null, "ESITE": null, "CODE": null, "NAME": "Seafood City Supermarket", "ADDRESS": "1368 Southcenter Mall #100", "ZIPCODE": null, "CITY": "Tukwila", "SEAT_CAP": "Supermarket" }, "geometry": { "type": "Point", "coordinates": [ -122.2560625, 47.4598125 ] } },
{ "type": "Feature", "properties": { "X": -122.3534375, "Y": 47.5141875, "OBJECTID": null, "FEATURE_ID": null, "ESITE": null, "CODE": null, "NAME": "Hung Long Grocery Store", "ADDRESS": "9988 15th Ave SW", "ZIPCODE": null, "CITY": "White Center", "SEAT_CAP": "Asian grocery store" }, "geometry": { "type": "Point", "coordinates": [ -122.3534375, 47.5141875 ] } },
{ "type": "Feature", "properties": { "X": -122.1540625, "Y": 47.7588125, "OBJECTID": null, "FEATURE_ID": null, "ESITE": null, "CODE": null, "NAME": "Target", "ADDRESS": "13950 NE 178th Pl Ste. 100", "ZIPCODE": null, "CITY": "Woodinville", "SEAT_CAP": "Department store" }, "geometry": { "type": "Point", "coordinates": [ -122.1540625, 47.7588125 ] } },
{ "type": "Feature", "properties": { "X": -122.1573125, "Y": 47.7558125, "OBJECTID": null, "FEATURE_ID": null, "ESITE": null, "CODE": null, "NAME": "Haggen", "ADDRESS": "17641 Garden Way NE", "ZIPCODE": null, "CITY": "Woodinville", "SEAT_CAP": "Grocery store" }, "geometry": { "type": "Point", "coordinates": [ -122.1573125, 47.7558125 ] } },
{ "type": "Feature", "properties": { "X": -122.0805625, "Y": 47.7561875, "OBJECTID": null, "FEATURE_ID": null, "ESITE": null, "CODE": null, "NAME": "Safeway", "ADDRESS": "19150 NE Woodinville Duvall Rd", "ZIPCODE": null, "CITY": "Woodinville", "SEAT_CAP": "Grocery store" }, "geometry": { "type": "Point", "coordinates": [ -122.0805625, 47.7561875 ] } }
]
}
